$PMTK011,MTKGPS*08

$PMTK010,001*2E

$GPGGA,165729.423,,,,,0,0,,,M,,M,,*43

$GPGSA,A,1,,,,,,,,,,,,,,,*1E

$GPGSV,2,1,08,09,82,079,,06,60,226,,02,44,294,,23,42,064,*71

$GPGSV,2,2,08,07,35,159,,30,10,180,,16,08,063,,29,03,346,*75

$GPRMC,165729.423,V,,,,,0.00,0.00,041115,,,N*46

$GPGGA,165731.000,,,,,0,1,,,M,,M,,*4E

$GPGSA,A,1,,,,,,,,,,,,,,,*1E

$GPGSV,2,1,08,09,82,079,39,06,60,226,,02,44,294,,23,42,064,*7B

$GPGSV,2,2,08,07,35,159,,30,10,180,,16,08,063,,29,03,346,*75

$GPRMC,165731.000,V,,,,,0.01,0.00,041115,,,N*4B

$GPGGA,165732.000,,,,,0,6,,,M,,M,,*4A

$GPGSA,A,1,,,,,,,,,,,,,,,*1E

$GPGSV,3,1,09,09,82,079,40,06,60,226,35,02,44,294,30,23,42,064,27*75

$GPGSV,3,2,09,07,35,159,36,33,30,198,,30,10,180,24,16,08,063,*7C

$GPGSV,3,3,09,29,03,346,*49

$GPRMC,165732.000,V,,,,,10.42,239.88,041115,,,N*76

$GPGGA,165733.000,5050.8059,N,00059.9662,W,1,6,1.28,-23.5,M,47.3,M,,*5C

$GPGSA,A,3,06,09,02,23,07,30,,,,,,,1.57,1.28,0.90*0B

$GPGSV,3,1,09,09,82,079,40,06,60,226,35,02,44,294,30,23,42,064,29*7B

$GPGSV,3,2,09,07,35,159,35,33,30,198,,30,10,180,25,16,08,063,*7E

$GPGSV,3,3,09,29,03,346,*49

$GPRMC,165733.000,A,5050.8059,N,00059.9662,W,10.63,237.44,041115,,,A*48

$GPGGA,165734.000,5050.8051,N,00059.9753,W,1,5,2.11,-20.2,M,47.3,M,,*5E

$GPGSA,A,3,06,09,02,07,30,,,,,,,,2.31,2.11,0.94*04

$GPGSV,3,1,09,09,82,079,40,06,60,226,32,02,44,294,28,23,42,064,18*77

$GPGSV,3,2,09,07,35,159,35,33,30,198,,30,10,180,21,16,08,063,*7A

$GPGSV,3,3,09,29,03,346,*49

$GPRMC,165734.000,A,5050.8051,N,00059.9753,W,10.57,237.82,041115,,,A*49

$GPGGA,165735.000,5050.8034,N,00059.9780,W,1,6,1.28,-18.9,M,47.3,M,,*58

$GPGSA,A,3,06,09,02,23,07,30,,,,,,,1.57,1.28,0.90*0B

$GPGSV,3,1,09,09,82,079,37,06,60,226,31,02,44,294,27,23,42,064,26*76

$GPGSV,3,2,09,07,35,159,34,33,30,198,,30,10,180,17,16,08,063,*7E

$GPGSV,3,3,09,29,03,346,*49

$GPRMC,165735.000,A,5050.8034,N,00059.9780,W,10.07,238.85,041115,,,A*48

$GPGGA,165736.000,5050.8016,N,00059.9805,W,1,6,1.28,-17.2,M,47.3,M,,*5D

$GPGSA,A,3,06,09,02,23,07,30,,,,,,,1.57,1.28,0.90*0B

$GPGSV,3,1,10,09,82,079,38,06,60,226,31,02,44,294,24,23,42,064,22*76

$GPGSV,3,2,10,07,35,159,35,33,30,198,,30,10,180,16,16,08,063,*76

$GPGSV,3,3,10,29,03,346,,03,,,23*43

$GPRMC,165736.000,A,5050.8016,N,00059.9805,W,9.94,241.21,041115,,,A*7B

$GPGGA,165737.000,5050.8008,N,00059.9841,W,1,6,1.28,-15.1,M,47.3,M,,*52

$GPGSA,A,3,06,09,02,23,07,30,,,,,,,1.57,1.28,0.90*0B

$GPGSV,3,1,10,09,82,079,38,06,60,226,31,02,44,294,25,23,42,064,21*74

$GPGSV,3,2,10,07,35,159,34,33,30,198,,30,10,180,18,16,08,063,*79

$GPGSV,3,3,10,29,03,346,,03,,,32*43

$GPRMC,165737.000,A,5050.8008,N,00059.9841,W,9.59,242.04,041115,,,A*70

$GPGGA,165738.000,5050.7998,N,00059.9891,W,1,6,1.28,-14.1,M,47.3,M,,*5E

$GPGSA,A,3,06,09,02,23,07,30,,,,,,,1.57,1.28,0.90*0B

$GPGSV,3,1,10,09,82,078,37,06,60,226,31,02,44,294,26,23,42,064,30*79

$GPGSV,3,2,10,07,35,159,33,33,30,198,,30,10,180,17,16,08,063,*71

$GPGSV,3,3,10,29,03,346,,03,,,25*45

$GPRMC,165738.000,A,5050.7998,N,00059.9891,W,10.49,241.95,041115,,,A*4F

$GPGGA,165739.000,5050.7985,N,00059.9922,W,1,6,1.28,-13.4,M,47.3,M,,*58

$GPGSA,A,3,06,09,02,23,07,30,,,,,,,1.57,1.28,0.90*0B

$GPGSV,3,1,10,09,82,078,36,06,60,226,32,02,44,294,24,23,42,064,28*70

$GPGSV,3,2,10,07,35,159,33,33,30,198,28,30,10,180,16,16,08,063,*7A

$GPGSV,3,3,10,29,03,346,,03,,,21*41

$GPRMC,165739.000,A,5050.7985,N,00059.9922,W,10.68,239.16,041115,,,A*4C

$GPGGA,165740.000,5050.7966,N,00059.9964,W,1,6,1.28,-13.4,M,47.3,M,,*59

$GPGSA,A,3,06,09,02,23,07,30,,,,,,,1.57,1.28,0.90*0B

$GPGSV,3,1,10,09,82,078,37,06,60,226,32,02,44,294,23,23,42,064,28*76

$GPGSV,3,2,10,07,35,159,26,33,30,198,27,30,10,180,16,16,08,063,*71

$GPGSV,3,3,10,29,03,346,,03,,,18*4B

$GPRMC,165740.000,A,5050.7966,N,00059.9964,W,11.16,237.19,041115,,,A*44

$GPGGA,165741.000,5050.7948,N,00100.0040,W,1,6,1.28,-12.2,M,47.3,M,,*58

$GPGSA,A,3,06,09,02,23,07,30,,,,,,,1.57,1.28,0.90*0B

$GPGSV,3,1,10,09,82,078,37,06,60,226,32,02,44,294,23,23,42,064,28*76

$GPGSV,3,2,10,07,35,159,33,33,30,198,,30,10,180,16,16,08,063,*70

$GPGSV,3,3,10,29,03,346,,03,,,23*43

$GPRMC,165741.000,A,5050.7948,N,00100.0040,W,12.81,241.16,041115,,,A*41

$GPGGA,165742.000,5050.7932,N,00100.0090,W,1,6,1.28,-11.4,M,47.3,M,,*5E

$GPGSA,A,3,06,09,02,23,07,30,,,,,,,1.57,1.28,0.90*0B

$GPGSV,3,1,10,09,82,078,37,06,60,226,32,02,44,294,23,23,42,064,26*78

$GPGSV,3,2,10,07,35,159,32,33,30,198,,30,10,180,16,16,08,063,*71

$GPGSV,3,3,10,29,03,346,,03,,,24*44

$GPRMC,165742.000,A,5050.7932,N,00100.0090,W,12.05,240.60,041115,,,A*4E

$GPGGA,165743.000,5050.7920,N,00100.0128,W,1,6,1.28,-10.2,M,47.3,M,,*59

$GPGSA,A,3,06,09,02,23,07,30,,,,,,,1.57,1.28,0.90*0B

$GPGSV,3,1,10,09,82,078,37,06,60,226,32,02,44,294,24,23,42,064,25*7C

$GPGSV,3,2,10,07,35,159,23,33,30,198,,30,10,180,16,16,08,063,*71

$GPGSV,3,3,10,29,03,346,,03,,,17*44

$GPRMC,165743.000,A,5050.7920,N,00100.0128,W,11.80,245.57,041115,,,A*41

$GPGGA,165744.000,5050.7903,N,00100.0183,W,1,6,1.28,-9.9,M,47.3,M,,*6D

$GPGSA,A,3,06,09,02,23,07,30,,,,,,,1.57,1.28,0.90*0B

$GPGSV,3,1,10,09,82,078,37,06,60,226,32,02,44,294,24,23,42,064,25*7C

$GPGSV,3,2,10,07,35,159,24,33,30,198,,30,10,180,16,16,08,063,*76

$GPGSV,3,3,10,29,03,346,,03,,,16*45

$GPRMC,165744.000,A,5050.7903,N,00100.0183,W,13.80,244.57,041115,,,A*45

$GPGGA,165745.000,5050.7886,N,00100.0243,W,1,6,1.42,-9.2,M,47.3,M,,*68

$GPGSA,A,3,06,09,02,23,07,30,,,,,,,2.51,1.42,2.07*0E

$GPGSV,3,1,10,09,82,078,37,06,60,226,32,02,44,294,24,23,42,064,26*7F

$GPGSV,3,2,10,07,35,159,24,33,30,198,,30,10,180,16,16,08,063,*76

$GPGSV,3,3,10,29,03,346,,03,,,16*45

$GPRMC,165745.000,A,5050.7886,N,00100.0243,W,14.57,246.87,041115,,,A*45

$GPGGA,165746.000,5050.7871,N,00100.0313,W,1,6,1.28,-9.0,M,47.3,M,,*69

$GPGSA,A,3,06,09,02,23,07,30,,,,,,,1.57,1.28,0.90*0B

$GPGSV,3,1,10,09,82,078,37,06,60,226,32,02,44,294,25,23,42,064,27*7F

$GPGSV,3,2,10,07,35,159,24,33,30,198,,30,10,180,16,16,08,063,*76

$GPGSV,3,3,10,29,03,346,,03,,,16*45

$GPRMC,165746.000,A,5050.7871,N,00100.0313,W,15.84,248.92,041115,,,A*4F

$GPGGA,165747.000,5050.7856,N,00100.0382,W,1,6,1.28,-8.9,M,47.3,M,,*6D

$GPGSA,A,3,06,09,02,23,07,30,,,,,,,1.57,1.28,0.90*0B

$GPGSV,3,1,10,09,82,078,37,06,60,226,33,02,44,294,27,23,42,064,28*73

$GPGSV,3,2,10,07,35,159,24,33,30,198,,30,10,180,16,16,08,063,*76

$GPGSV,3,3,10,29,03,346,,03,,,16*45

$GPRMC,165747.000,A,5050.7856,N,00100.0382,W,17.30,245.81,041115,,,A*41

$GPGGA,165748.000,5050.7824,N,00100.0457,W,1,5,1.47,-8.4,M,47.3,M,,*6F

$GPGSA,A,3,06,09,02,23,07,,,,,,,,3.46,1.47,3.13*0B

$GPGSV,3,1,10,09,82,078,37,06,60,226,34,02,44,294,28,23,42,064,29*7A

$GPGSV,3,2,10,07,35,159,26,33,30,198,,30,10,180,16,16,08,063,*74

$GPGSV,3,3,10,29,03,346,,03,,,16*45

$GPRMC,165748.000,A,5050.7824,N,00100.0457,W,18.30,245.24,041115,,,A*44

$GPGGA,165749.000,5050.7800,N,00100.0533,W,1,6,1.42,-7.4,M,47.3,M,,*62

$GPGSA,A,3,06,09,02,23,07,30,,,,,,,2.51,1.42,2.07*0E

$GPGSV,3,1,10,09,82,078,37,06,60,226,34,02,44,294,29,23,42,064,29*7B

$GPGSV,3,2,10,07,35,159,27,37,28,151,,30,10,180,16,16,08,063,*7D

$GPGSV,3,3,10,29,03,346,,03,,,16*45

$GPRMC,165749.000,A,5050.7800,N,00100.0533,W,18.78,247.67,041115,,,A*49

$GPGGA,165750.000,5050.7781,N,00100.0613,W,1,6,1.42,-6.8,M,47.3,M,,*60

$GPGSA,A,3,06,09,02,23,07,30,,,,,,,2.51,1.42,2.07*0E

$GPGSV,3,1,10,09,82,078,37,06,60,226,33,02,44,294,28,23,42,064,30*75

$GPGSV,3,2,10,07,35,159,26,37,28,151,,30,10,180,15,16,08,063,*7F

$GPGSV,3,3,10,29,03,346,,03,,,16*45

$GPRMC,165750.000,A,5050.7781,N,00100.0613,W,19.58,248.76,041115,,,A*4A

$GPGGA,165751.000,5050.7762,N,00100.0692,W,1,5,1.47,-6.9,M,47.3,M,,*62

$GPGSA,A,3,06,09,02,23,07,,,,,,,,3.46,1.47,3.13*0B

$GPGSV,3,1,10,09,82,078,37,06,60,226,34,02,44,294,28,23,42,064,31*73

$GPGSV,3,2,10,07,35,159,27,37,28,151,,30,10,180,15,16,08,063,*7E

$GPGSV,3,3,10,29,03,346,,03,,,16*45

$GPRMC,165751.000,A,5050.7762,N,00100.0692,W,20.76,248.47,041115,,,A*4B

$GPGGA,165752.000,5050.7741,N,00100.0780,W,1,6,1.39,-8.0,M,47.3,M,,*6F

$GPGSA,A,3,06,09,02,23,07,16,,,,,,,2.41,1.39,1.97*0D

$GPGSV,3,1,10,09,82,078,38,06,60,226,35,02,44,294,29,23,42,064,33*7E

$GPGSV,3,2,10,07,35,159,34,37,28,151,,30,10,180,15,16,08,063,24*7A

$GPGSV,3,3,10,29,03,346,,03,,,16*45

$GPRMC,165752.000,A,5050.7741,N,00100.0780,W,20.52,246.99,041115,,,A*40

$GPGGA,165753.000,5050.7718,N,00100.0856,W,1,7,1.20,-7.5,M,47.3,M,,*65

$GPGSA,A,3,06,09,02,23,07,30,16,,,,,,1.90,1.20,1.48*0B

$GPGSV,3,1,10,09,82,078,38,06,60,226,36,02,44,294,30,23,41,064,35*70

$GPGSV,3,2,10,07,35,159,35,37,28,151,,30,10,180,17,16,08,063,25*78

$GPGSV,3,3,10,29,03,346,23,03,,,17*45

$GPRMC,165753.000,A,5050.7718,N,00100.0856,W,20.36,247.93,041115,,,A*40

$GPGGA,165754.000,5050.7696,N,00100.0941,W,1,7,1.20,-7.4,M,47.3,M,,*63

$GPGSA,A,3,06,09,02,23,07,30,16,,,,,,1.91,1.20,1.48*0A

$GPGSV,3,1,10,09,82,078,38,06,60,226,36,02,44,294,31,23,41,064,35*71

$GPGSV,3,2,10,07,35,159,35,37,28,151,,30,10,180,19,16,08,063,22*71

$GPGSV,3,3,10,29,03,346,26,03,,,27*43

$GPRMC,165754.000,A,5050.7696,N,00100.0941,W,20.81,247.78,041115,,,A*4E

$GPGGA,165755.000,5050.7669,N,00100.1028,W,1,7,1.12,-7.7,M,47.3,M,,*67

$GPGSA,A,3,06,09,02,23,07,30,16,,,,,,1.39,1.12,0.83*0F

$GPGSV,3,1,10,09,82,078,38,06,60,226,37,02,44,294,31,23,41,064,35*70

$GPGSV,3,2,10,07,35,159,35,37,28,151,,30,10,180,20,16,08,063,20*79

$GPGSV,3,3,10,29,03,346,27,03,,,28*4D

$GPRMC,165755.000,A,5050.7669,N,00100.1028,W,21.46,246.62,041115,,,A*48

$GPGGA,165756.000,5050.7645,N,00100.1117,W,1,7,1.20,-9.0,M,47.3,M,,*6F

$GPGSA,A,3,06,09,02,23,07,30,16,,,,,,1.91,1.20,1.48*0A

$GPGSV,3,1,10,09,82,078,38,06,60,226,37,02,44,294,31,23,41,064,35*70

$GPGSV,3,2,10,07,35,159,35,37,28,151,,30,10,180,21,16,08,063,17*7C

$GPGSV,3,3,10,29,03,346,17,03,,,28*4E

$GPRMC,165756.000,A,5050.7645,N,00100.1117,W,22.26,246.48,041115,,,A*45

$GPGGA,165757.000,5050.7621,N,00100.1206,W,1,6,1.39,-9.5,M,47.3,M,,*63

$GPGSA,A,3,06,09,02,23,07,16,,,,,,,2.42,1.39,1.97*0E

$GPGSV,3,1,10,09,82,078,38,06,60,226,37,02,44,294,31,23,41,064,34*71

$GPGSV,3,2,10,07,35,159,27,37,28,151,,30,10,180,19,16,08,063,17*74

$GPGSV,3,3,10,29,03,346,17,03,,,27*41

$GPRMC,165757.000,A,5050.7621,N,00100.1206,W,22.90,246.93,041115,,,A*4E

$GPGGA,165758.000,5050.7598,N,00100.1299,W,1,6,1.28,-9.8,M,47.3,M,,*66

$GPGSA,A,3,06,09,02,23,07,16,,,,,,,1.56,1.28,0.89*06

$GPGSV,3,1,09,09,82,078,36,06,60,226,37,02,44,294,31,23,41,064,33*70

$GPGSV,3,2,09,07,35,159,27,37,28,151,,30,10,180,18,16,08,063,18*72

$GPGSV,3,3,09,29,03,346,*49

$GPRMC,165758.000,A,5050.7598,N,00100.1299,W,22.85,249.13,041115,,,A*45

$GPGGA,165759.000,5050.7573,N,00100.1394,W,1,6,1.39,-10.5,M,47.3,M,,*5B

$GPGSA,A,3,06,09,02,23,07,16,,,,,,,2.42,1.39,1.97*0E

$GPGSV,3,1,10,09,82,078,37,06,60,226,37,02,44,294,31,23,41,064,32*78

$GPGSV,3,2,10,07,35,159,29,39,26,147,,30,10,180,17,16,08,063,18*7C

$GPGSV,3,3,10,29,03,346,,03,,,17*44

$GPRMC,165759.000,A,5050.7573,N,00100.1394,W,24.22,246.90,041115,,,A*42

$GPGGA,165800.000,5050.7548,N,00100.1491,W,1,6,1.39,-11.4,M,47.3,M,,*52

$GPGSA,A,3,06,09,02,23,07,16,,,,,,,2.42,1.39,1.97*0E

$GPGSV,3,1,10,09,82,078,37,06,60,226,37,02,44,294,30,23,41,064,32*79

$GPGSV,3,2,10,07,35,159,29,39,26,147,,30,10,180,17,16,08,063,18*7C

$GPGSV,3,3,10,29,03,346,,03,,,16*45

$GPRMC,165800.000,A,5050.7548,N,00100.1491,W,24.96,246.87,041115,,,A*42

$GPGGA,165801.000,5050.7520,N,00100.1588,W,1,6,1.29,-12.1,M,47.3,M,,*53

$GPGSA,A,3,06,09,02,23,07,16,,,,,,,1.56,1.29,0.89*07

$GPGSV,3,1,10,09,82,078,38,06,60,226,37,02,44,294,29,23,41,064,33*7F

$GPGSV,3,2,10,07,35,159,30,39,26,147,,30,10,180,,16,08,063,18*72

$GPGSV,3,3,10,29,03,346,,03,,,16*45

$GPRMC,165801.000,A,5050.7520,N,00100.1588,W,25.39,246.48,041115,,,A*43

$GPGGA,165802.000,5050.7492,N,00100.1691,W,1,6,1.28,-12.3,M,47.3,M,,*50

$GPGSA,A,3,06,09,02,23,07,16,,,,,,,1.56,1.28,0.89*06

$GPGSV,3,1,09,09,82,078,37,06,60,226,36,02,44,294,28,23,41,064,33*78

$GPGSV,3,2,09,07,35,159,19,39,26,147,,30,10,180,,16,08,063,20*7A

$GPGSV,3,3,09,29,03,346,*49

$GPRMC,165802.000,A,5050.7492,N,00100.1691,W,25.80,246.71,041115,,,A*4B

$GPGGA,165803.000,5050.7465,N,00100.1795,W,1,6,1.29,-12.9,M,47.3,M,,*57

$GPGSA,A,3,06,09,02,23,07,16,,,,,,,1.56,1.29,0.89*07

$GPGSV,3,1,09,09,82,078,37,06,60,226,36,02,44,294,29,23,41,064,33*79

$GPGSV,3,2,09,07,35,159,21,39,26,147,,30,10,180,,16,08,063,22*73

$GPGSV,3,3,09,29,03,346,*49

$GPRMC,165803.000,A,5050.7465,N,00100.1795,W,26.12,245.84,041115,,,A*46

$GPGGA,165804.000,5050.7435,N,00100.1902,W,1,6,1.44,-12.9,M,47.3,M,,*5E

$GPGSA,A,3,06,09,02,23,07,16,,,,,,,1.73,1.44,0.95*06

$GPGSV,3,1,09,09,82,078,37,06,60,226,35,02,44,294,29,23,41,064,34*7D

$GPGSV,3,2,09,07,35,159,23,39,26,147,,30,10,180,,16,08,063,23*70

$GPGSV,3,3,09,29,03,346,*49

$GPRMC,165804.000,A,5050.7435,N,00100.1902,W,26.04,245.26,041115,,,A*4B

$GPGGA,165805.000,5050.7400,N,00100.2005,W,1,6,1.44,-12.8,M,47.3,M,,*55

$GPGSA,A,3,06,09,02,23,07,16,,,,,,,1.73,1.44,0.95*06

$GPGSV,3,1,09,09,82,078,37,06,60,226,35,02,44,294,30,23,41,064,34*75

$GPGSV,3,2,09,07,35,159,24,39,26,147,,30,10,180,,16,08,063,24*70

$GPGSV,3,3,09,29,03,346,*49

$GPRMC,165805.000,A,5050.7400,N,00100.2005,W,26.09,244.67,041115,,,A*48

$GPGGA,165806.000,5050.7365,N,00100.2105,W,1,6,1.28,-12.7,M,47.3,M,,*56

$GPGSA,A,3,06,09,02,23,07,16,,,,,,,1.56,1.28,0.89*06

$GPGSV,3,1,09,09,82,078,37,06,60,226,35,02,44,294,31,23,41,064,35*75

$GPGSV,3,2,09,07,35,159,26,39,26,147,,30,10,180,,16,08,063,25*73

$GPGSV,3,3,09,29,03,346,*49

$GPRMC,165806.000,A,5050.7365,N,00100.2105,W,25.87,245.69,041115,,,A*44

$GPGGA,165807.000,5050.7333,N,00100.2209,W,1,6,1.44,-12.4,M,47.3,M,,*52

$GPGSA,A,3,06,09,02,23,07,16,,,,,,,1.73,1.44,0.95*06

$GPGSV,3,1,09,09,82,078,37,06,60,226,35,02,44,294,32,23,41,064,35*76

$GPGSV,3,2,09,07,35,159,26,39,26,147,,30,10,180,,16,08,063,25*73

$GPGSV,3,3,09,29,03,346,*49

$GPRMC,165807.000,A,5050.7333,N,00100.2209,W,25.53,246.66,041115,,,A*4C

$GPGGA,165808.000,5050.7304,N,00100.2314,W,1,6,1.44,-12.9,M,47.3,M,,*59

$GPGSA,A,3,06,09,02,23,07,16,,,,,,,1.73,1.44,0.95*06

$GPGSV,3,1,09,09,82,078,37,06,60,226,34,02,44,294,32,23,41,064,35*77

$GPGSV,3,2,09,07,35,159,28,30,10,180,,16,08,063,24,40,06,109,*7A

$GPGSV,3,3,09,29,03,346,*49

$GPRMC,165808.000,A,5050.7304,N,00100.2314,W,25.17,247.70,041115,,,A*4C

$GPGGA,165809.000,5050.7277,N,00100.2417,W,1,6,1.29,-13.2,M,47.3,M,,*58

$GPGSA,A,3,06,09,02,23,07,16,,,,,,,1.57,1.29,0.89*06

$GPGSV,3,1,09,09,82,078,37,06,60,226,33,02,44,294,33,23,41,064,36*72

$GPGSV,3,2,09,07,35,159,27,30,10,180,,16,08,063,24,40,06,109,*75

$GPGSV,3,3,09,29,03,346,*49

$GPRMC,165809.000,A,5050.7277,N,00100.2417,W,24.85,248.50,041115,,,A*4B

$GPGGA,165810.000,5050.7252,N,00100.2520,W,1,6,1.44,-13.6,M,47.3,M,,*5D

$GPGSA,A,3,06,09,02,23,07,16,,,,,,,1.73,1.44,0.95*06

$GPGSV,3,1,09,09,82,078,37,06,60,226,32,02,44,294,34,23,41,064,36*74

$GPGSV,3,2,09,07,35,159,26,30,10,180,,16,08,063,24,40,06,109,*74

$GPGSV,3,3,09,29,03,346,*49

$GPRMC,165810.000,A,5050.7252,N,00100.2520,W,24.42,249.94,041115,,,A*43

$GPGGA,165811.000,5050.7232,N,00100.2620,W,1,6,1.44,-13.9,M,47.3,M,,*56

$GPGSA,A,3,06,09,02,23,07,16,,,,,,,1.73,1.44,0.95*06

$GPGSV,3,1,09,09,82,078,38,06,60,226,31,02,44,294,34,23,41,064,35*7B

$GPGSV,3,2,09,07,35,159,19,30,10,180,,16,08,063,23,40,06,109,*7F

$GPGSV,3,3,09,29,03,346,*49

$GPRMC,165811.000,A,5050.7232,N,00100.2620,W,23.36,252.26,041115,,,A*40

$GPGGA,165812.000,5050.7213,N,00100.2719,W,1,6,1.29,-14.3,M,47.3,M,,*5B

$GPGSA,A,3,06,09,02,23,07,16,,,,,,,1.56,1.29,0.89*07

$GPGSV,3,1,09,09,82,078,38,06,60,226,30,02,44,294,34,23,41,064,28*76

$GPGSV,3,2,09,07,35,159,19,30,10,180,,16,08,063,16,40,06,109,*79

$GPGSV,3,3,09,29,03,346,*49

$GPRMC,165812.000,A,5050.7213,N,00100.2719,W,23.42,253.62,041115,,,A*49

$GPGGA,165813.000,5050.7199,N,00100.2818,W,1,5,1.44,-14.5,M,47.3,M,,*5B

$GPGSA,A,3,06,09,02,23,07,,,,,,,,1.73,1.44,0.95*01

$GPGSV,3,1,09,09,82,078,38,06,60,226,31,02,44,294,34,23,41,064,20*7F

$GPGSV,3,2,09,07,35,159,19,30,10,180,,16,08,063,16,40,06,109,*79

$GPGSV,3,3,09,29,03,346,*49

$GPRMC,165813.000,A,5050.7199,N,00100.2818,W,22.51,254.94,041115,,,A*4A

$GPGGA,165814.000,5050.7188,N,00100.2912,W,1,4,2.44,-14.5,M,47.3,M,,*55

$GPGSA,A,3,06,09,02,07,,,,,,,,,2.62,2.44,0.97*02

$GPGSV,3,1,09,09,82,078,39,06,60,226,31,02,44,294,35,23,41,064,20*7F

$GPGSV,3,2,09,07,35,159,27,30,10,180,,16,08,063,,40,06,109,*73

$GPGSV,3,3,09,29,03,346,*49

$GPRMC,165814.000,A,5050.7188,N,00100.2912,W,21.44,257.27,041115,,,A*4A

$GPGGA,165815.000,5050.7174,N,00100.3004,W,1,4,2.44,-14.9,M,47.3,M,,*54

$GPGSA,A,3,06,09,02,07,,,,,,,,,2.62,2.44,0.97*02

$GPGSV,3,1,09,09,82,078,39,06,60,226,31,02,44,294,35,23,41,064,18*74

$GPGSV,3,2,09,07,35,159,26,30,10,180,,16,08,063,,40,06,109,*72

$GPGSV,3,3,09,29,03,346,*49

$GPRMC,165815.000,A,5050.7174,N,00100.3004,W,21.13,257.80,041115,,,A*48

$GPGGA,165816.000,5050.7165,N,00100.3095,W,1,4,2.44,-15.1,M,47.3,M,,*56

$GPGSA,A,3,06,09,02,07,,,,,,,,,2.62,2.44,0.97*02

$GPGSV,3,1,09,09,82,078,39,06,60,226,30,02,44,294,35,23,41,064,18*75

$GPGSV,3,2,09,07,35,159,26,30,10,180,,16,08,063,,40,06,109,*72

$GPGSV,3,3,09,29,03,346,*49

$GPRMC,165816.000,A,5050.7165,N,00100.3095,W,20.90,260.12,041115,,,A*46

$GPGGA,165817.000,5050.7155,N,00100.3182,W,1,4,2.43,-15.0,M,47.3,M,,*55

$GPGSA,A,3,06,09,02,07,,,,,,,,,2.62,2.43,0.97*05

$GPGSV,3,1,09,09,82,078,40,06,60,226,31,02,44,294,35,23,41,064,18*7A

$GPGSV,3,2,09,07,35,159,26,30,10,180,,16,08,063,16,40,06,109,*75

$GPGSV,3,3,09,29,03,346,*49

$GPRMC,165817.000,A,5050.7155,N,00100.3182,W,21.29,260.90,041115,,,A*4A

$GPGGA,165818.000,5050.7146,N,00100.3277,W,1,4,2.43,-15.0,M,47.3,M,,*51

$GPGSA,A,3,06,09,02,07,,,,,,,,,2.62,2.43,0.97*05

$GPGSV,3,1,09,09,82,078,40,06,60,226,32,02,44,294,36,23,41,064,18*7A

$GPGSV,3,2,09,07,35,159,26,30,10,180,,16,08,063,16,44,05,108,*73

$GPGSV,3,3,09,29,03,346,*49

$GPRMC,165818.000,A,5050.7146,N,00100.3277,W,22.34,260.25,041115,,,A*4F

$GPGGA,165819.000,5050.7138,N,00100.3374,W,1,5,2.43,-15.5,M,47.3,M,,*5F

$GPGSA,A,3,06,09,02,07,16,,,,,,,,2.62,2.43,0.97*02

$GPGSV,3,1,09,09,82,078,40,06,60,226,32,02,44,294,35,23,41,064,18*79

$GPGSV,3,2,09,07,35,159,26,30,10,180,,16,08,063,21,44,05,108,*77

$GPGSV,3,3,09,29,03,346,*49

$GPRMC,165819.000,A,5050.7138,N,00100.3374,W,22.29,261.66,041115,,,A*4F

$GPGGA,165820.000,5050.7141,N,00100.3474,W,1,5,2.43,-15.9,M,47.3,M,,*50

$GPGSA,A,3,06,09,02,07,16,,,,,,,,2.62,2.43,0.97*02

$GPGSV,3,1,09,09,82,078,40,06,60,226,33,02,44,294,35,23,41,064,18*78

$GPGSV,3,2,09,07,35,159,26,30,10,180,,16,08,063,21,44,05,108,*77

$GPGSV,3,3,09,29,03,346,*49

$GPRMC,165820.000,A,5050.7141,N,00100.3474,W,24.05,260.21,041115,,,A*46

$GPGGA,165821.000,5050.7129,N,00100.3578,W,1,5,1.38,-16.2,M,47.3,M,,*55

$GPGSA,A,3,06,09,02,07,16,,,,,,,,1.65,1.38,0.91*0F

$GPGSV,3,1,09,09,82,078,40,06,60,226,32,02,44,294,35,23,41,064,18*79

$GPGSV,3,2,09,07,35,159,26,30,10,180,,16,08,063,17,44,05,108,*72

$GPGSV,3,3,09,29,03,346,*49

$GPRMC,165821.000,A,5050.7129,N,00100.3578,W,23.79,260.29,041115,,,A*40

$GPGGA,165822.000,5050.7118,N,00100.3681,W,1,5,2.43,-16.4,M,47.3,M,,*58

$GPGSA,A,3,06,09,02,07,16,,,,,,,,2.62,2.43,0.97*02

$GPGSV,3,1,09,09,82,078,40,06,60,226,32,02,44,294,34,23,41,064,18*78

$GPGSV,3,2,09,07,35,159,26,30,10,180,,16,08,063,17,44,05,108,*72

$GPGSV,3,3,09,29,03,346,*49

$GPRMC,165822.000,A,5050.7118,N,00100.3681,W,24.29,261.64,041115,,,A*4E

$GPGGA,165823.000,5050.7107,N,00100.3787,W,1,6,2.09,-16.4,M,47.3,M,,*5D

$GPGSA,A,3,06,09,02,07,30,16,,,,,,,2.29,2.09,0.94*03

$GPGSV,3,1,09,09,82,078,40,06,60,226,32,02,44,294,35,23,41,064,18*79

$GPGSV,3,2,09,07,35,159,26,30,10,180,19,16,08,063,17,44,05,108,*7A

$GPGSV,3,3,09,29,03,346,*49

$GPRMC,165823.000,A,5050.7107,N,00100.3787,W,25.26,261.44,041115,,,A*4A

$GPGGA,165824.000,5050.7092,N,00100.3895,W,1,6,2.09,-16.4,M,47.3,M,,*5B

$GPGSA,A,3,06,09,02,07,30,16,,,,,,,2.29,2.09,0.94*03

$GPGSV,3,1,09,09,82,078,40,06,60,226,33,02,44,294,36,23,41,064,18*7B

$GPGSV,3,2,09,07,35,159,26,30,10,180,26,16,08,063,18,44,05,108,*79

$GPGSV,3,3,09,29,03,346,*49

$GPRMC,165824.000,A,5050.7092,N,00100.3895,W,25.01,260.96,041115,,,A*47

$GPGGA,165825.000,5050.7078,N,00100.4003,W,1,6,2.09,-16.8,M,47.3,M,,*52

$GPGSA,A,3,06,09,02,07,30,16,,,,,,,2.29,2.09,0.94*03

$GPGSV,3,1,09,09,82,078,40,06,60,226,33,02,44,294,36,23,41,064,18*7B

$GPGSV,3,2,09,07,35,159,26,30,10,180,22,16,08,063,19,44,05,108,*7C

$GPGSV,3,3,09,29,03,346,*49

$GPRMC,165825.000,A,5050.7078,N,00100.4003,W,25.04,259.74,041115,,,A*41

$GPGGA,165826.000,5050.7067,N,00100.4109,W,1,6,2.09,-16.9,M,47.3,M,,*55

$GPGSA,A,3,06,09,02,07,30,16,,,,,,,2.29,2.09,0.94*03

$GPGSV,3,1,09,09,82,078,40,06,60,226,31,02,44,294,34,23,41,064,18*7B

$GPGSV,3,2,09,07,35,159,26,30,10,180,23,16,08,063,20,44,05,108,*77

$GPGSV,3,3,09,29,03,346,*49

$GPRMC,165826.000,A,5050.7067,N,00100.4109,W,24.51,259.98,041115,,,A*44

$GPGGA,165827.000,5050.7058,N,00100.4211,W,1,7,1.28,-17.1,M,47.3,M,,*5A

$GPGSA,A,3,06,09,02,23,07,30,16,,,,,,1.57,1.28,0.90*0C

$GPGSV,3,1,09,09,82,078,40,06,60,226,30,02,44,294,32,23,41,064,20*77

$GPGSV,3,2,09,07,35,159,38,33,30,198,,30,10,180,22,16,08,063,27*71

$GPGSV,3,3,09,29,03,346,*49

$GPRMC,165827.000,A,5050.7058,N,00100.4211,W,22.75,262.77,041115,,,A*4A

$GPGGA,165828.000,5050.7052,N,00100.4303,W,1,7,1.28,-16.8,M,47.3,M,,*55

$GPGSA,A,3,06,09,02,23,07,30,16,,,,,,1.57,1.28,0.90*0C

$GPGSV,3,1,09,09,82,078,40,06,60,226,38,02,44,294,30,23,41,064,21*7C

$GPGSV,3,2,09,07,35,159,38,33,30,198,,30,10,180,21,16,08,063,27*72

$GPGSV,3,3,09,29,03,346,*49

$GPRMC,165828.000,A,5050.7052,N,00100.4303,W,19.64,268.64,041115,,,A*4D

$GPGGA,165829.000,5050.7049,N,00100.4384,W,1,5,1.44,-16.6,M,47.3,M,,*57

$GPGSA,A,3,06,09,02,23,07,,,,,,,,1.73,1.44,0.95*01

$GPGSV,3,1,09,09,82,078,40,06,60,226,39,02,44,294,28,23,41,064,33*77

$GPGSV,3,2,09,07,35,159,37,33,30,198,,30,10,180,20,16,08,063,15*7D

$GPGSV,3,3,09,29,03,346,*49

$GPRMC,165829.000,A,5050.7049,N,00100.4384,W,17.52,272.14,041115,,,A*4E

$GPGGA,165830.000,5050.7049,N,00100.4459,W,1,5,1.44,-16.3,M,47.3,M,,*5D

$GPGSA,A,3,06,09,02,23,07,,,,,,,,1.73,1.44,0.95*01

$GPGSV,3,1,09,09,82,078,39,06,60,226,39,02,44,294,28,23,41,064,33*79

$GPGSV,3,2,09,07,35,159,37,33,30,198,,30,10,180,19,16,08,063,15*77

$GPGSV,3,3,09,29,03,346,*49

$GPRMC,165830.000,A,5050.7049,N,00100.4459,W,16.06,273.50,041115,,,A*40

$GPGGA,165831.000,5050.7053,N,00100.4521,W,1,6,1.44,-16.2,M,47.3,M,,*5B

$GPGSA,A,3,06,09,02,23,07,16,,,,,,,1.73,1.44,0.95*06

$GPGSV,3,1,09,09,82,078,38,06,60,226,38,02,44,294,29,23,41,064,23*79

$GPGSV,3,2,09,07,35,159,37,33,30,198,,30,10,180,18,16,08,063,16*75

$GPGSV,3,3,09,29,03,346,21*4A

$GPRMC,165831.000,A,5050.7053,N,00100.4521,W,13.95,276.13,041115,,,A*49

$GPGGA,165832.000,5050.7055,N,00100.4577,W,1,5,1.44,-15.7,M,47.3,M,,*58

$GPGSA,A,3,06,09,02,23,07,,,,,,,,1.73,1.44,0.95*01

$GPGSV,3,1,09,09,82,078,38,06,60,226,39,02,44,294,31,23,41,064,23*71

$GPGSV,3,2,09,07,35,159,37,33,30,198,,30,10,180,18,16,08,063,16*75

$GPGSV,3,3,09,29,04,346,23*4F

$GPRMC,165832.000,A,5050.7055,N,00100.4577,W,12.79,278.57,041115,,,A*42

$GPGGA,165833.000,5050.7064,N,00100.4625,W,1,5,1.44,-15.2,M,47.3,M,,*5A

$GPGSA,A,3,06,09,02,23,07,,,,,,,,1.73,1.44,0.95*01

$GPGSV,3,1,09,09,82,078,38,06,60,226,39,02,44,294,32,23,41,064,23*72

$GPGSV,3,2,09,07,35,159,37,33,30,198,,30,10,180,18,16,08,063,17*74

$GPGSV,3,3,09,29,04,346,19*46

$GPRMC,165833.000,A,5050.7064,N,00100.4625,W,11.61,280.40,041115,,,A*4E

$GPGGA,165834.000,5050.7072,N,00100.4671,W,1,7,1.42,-15.0,M,47.3,M,,*5D

$GPGSA,A,3,06,09,02,23,07,30,16,,,,,,2.52,1.42,2.09*04

$GPGSV,3,1,09,09,82,078,38,06,60,226,39,02,44,294,32,23,41,064,22*73

$GPGSV,3,2,09,07,35,159,37,33,30,198,,30,10,180,25,16,08,063,18*75

$GPGSV,3,3,09,29,04,346,17*48

$GPRMC,165834.000,A,5050.7072,N,00100.4671,W,10.75,282.38,041115,,,A*46

$GPGGA,165835.000,5050.7078,N,00100.4716,W,1,6,1.42,-14.7,M,47.3,M,,*51

$GPGSA,A,3,06,09,02,23,07,30,,,,,,,2.52,1.42,2.09*03

$GPGSV,3,1,09,09,82,078,38,06,60,226,38,02,44,294,33,23,41,064,21*70

$GPGSV,3,2,09,07,35,159,37,33,30,198,29,30,10,180,25,16,08,063,17*71

$GPGSV,3,3,09,29,04,346,24*48

$GPRMC,165835.000,A,5050.7078,N,00100.4716,W,10.59,284.14,041115,,,A*4B

$GPGGA,165836.000,5050.7086,N,00100.4763,W,1,6,2.09,-14.7,M,47.3,M,,*5D

$GPGSA,A,3,06,09,02,07,30,16,,,,,,,2.29,2.09,0.94*03

$GPGSV,3,1,09,09,82,078,38,06,60,226,30,02,44,294,32,23,41,064,20*78

$GPGSV,3,2,09,07,35,159,37,33,30,198,27,30,10,180,25,16,08,063,16*7E

$GPGSV,3,3,09,29,04,346,24*48

$GPRMC,165836.000,A,5050.7086,N,00100.4763,W,11.46,285.87,041115,,,A*4F

$GPGGA,165837.000,5050.7097,N,00100.4812,W,1,7,1.28,-14.1,M,47.3,M,,*52

$GPGSA,A,3,06,09,02,23,07,30,16,,,,,,1.57,1.28,0.90*0C

$GPGSV,3,1,09,09,82,078,38,06,60,226,30,02,44,293,31,23,41,064,20*7C

$GPGSV,3,2,09,07,35,159,37,33,30,198,27,30,10,180,26,16,08,063,17*7C

$GPGSV,3,3,09,29,04,346,24*48

$GPRMC,165837.000,A,5050.7097,N,00100.4812,W,12.14,288.84,041115,,,A*4D

$GPGGA,165838.000,5050.7108,N,00100.4867,W,1,7,1.20,-13.8,M,47.3,M,,*5E

$GPGSA,A,3,06,09,02,23,07,30,16,,,,,,1.91,1.20,1.49*0B

$GPGSV,3,1,10,09,82,078,38,06,60,226,30,02,44,293,31,23,41,064,31*74

$GPGSV,3,2,10,07,35,159,36,33,30,198,26,30,10,180,26,16,08,063,19*7A

$GPGSV,3,3,10,26,08,035,,29,04,346,23*7D

$GPRMC,165838.000,A,5050.7108,N,00100.4867,W,13.36,291.20,041115,,,A*40

$GPGGA,165839.000,5050.7122,N,00100.4924,W,1,7,1.28,-13.2,M,47.3,M,,*53

$GPGSA,A,3,06,09,02,23,07,30,16,,,,,,1.57,1.28,0.90*0C

$GPGSV,3,1,10,09,82,078,38,06,60,226,30,02,44,293,32,23,41,064,31*77

$GPGSV,3,2,10,07,35,159,36,33,30,198,27,30,10,180,25,16,08,063,19*78

$GPGSV,3,3,10,26,08,035,,29,04,346,22*7C

$GPRMC,165839.000,A,5050.7122,N,00100.4924,W,13.74,295.53,041115,,,A*49

$GPGGA,165840.000,5050.7140,N,00100.4987,W,1,8,1.11,-12.5,M,47.3,M,,*53

$GPGSA,A,3,06,09,02,23,07,30,16,26,,,,,1.72,1.11,1.31*0F

$GPGSV,3,1,10,09,82,078,38,06,60,226,32,02,44,293,33,23,41,064,29*7D

$GPGSV,3,2,10,07,35,159,36,33,30,198,,30,10,180,24,16,08,063,19*7C

$GPGSV,3,3,10,26,08,035,28,29,04,346,21*75

$GPRMC,165840.000,A,5050.7140,N,00100.4987,W,13.75,298.95,041115,,,A*4C

$GPGGA,165841.000,5050.7161,N,00100.5032,W,1,8,1.05,-12.8,M,47.3,M,,*5F

$GPGSA,A,3,06,09,02,23,07,30,16,26,,,,,1.32,1.05,0.79*03

$GPGSV,3,1,10,09,82,078,38,06,60,226,34,02,44,293,33,23,41,064,28*7A

$GPGSV,3,2,10,07,35,159,36,33,30,198,,30,10,180,22,16,08,063,20*70

$GPGSV,3,3,10,26,08,035,23,29,04,346,21*7E

$GPRMC,165841.000,A,5050.7161,N,00100.5032,W,13.57,300.91,041115,,,A*4C

$GPGGA,165842.000,5050.7178,N,00100.5082,W,1,8,1.05,-12.8,M,47.3,M,,*5F

$GPGSA,A,3,06,09,02,23,07,30,16,26,,,,,1.32,1.05,0.79*03

$GPGSV,3,1,10,09,82,078,38,06,60,225,34,02,44,293,33,23,41,064,26*77

$GPGSV,3,2,10,07,35,159,35,33,30,198,,30,10,180,20,16,08,063,19*7B

$GPGSV,3,3,10,26,08,035,16,29,04,346,22*7B

$GPRMC,165842.000,A,5050.7178,N,00100.5082,W,11.55,298.18,041115,,,A*4D

$GPGGA,165843.000,5050.7195,N,00100.5109,W,1,6,2.76,-13.1,M,47.3,M,,*5E

$GPGSA,A,3,06,09,02,07,30,26,,,,,,,3.93,2.76,2.81*0E

$GPGSV,3,1,10,09,82,078,38,06,60,225,36,02,44,293,33,23,41,064,17*77

$GPGSV,3,2,10,07,35,159,36,33,30,198,,30,10,180,21,16,08,063,18*78

$GPGSV,3,3,10,26,08,035,20,29,04,346,22*7E

$GPRMC,165843.000,A,5050.7195,N,00100.5109,W,7.98,308.87,041115,,,A*75

$GPGGA,165844.000,5050.7205,N,00100.5129,W,1,8,1.11,-12.4,M,47.3,M,,*59

$GPGSA,A,3,06,09,02,23,07,30,16,26,,,,,1.72,1.11,1.31*0F

$GPGSV,3,1,11,09,82,078,37,06,60,225,36,02,44,293,32,23,41,064,24*78

$GPGSV,3,2,11,07,35,159,36,33,30,198,,30,10,180,29,03,10,108,*79

$GPGSV,3,3,11,16,08,063,20,26,08,035,25,29,04,346,22*42

$GPRMC,165844.000,A,5050.7205,N,00100.5129,W,3.33,308.26,041115,,,A*74

$GPGGA,165845.000,5050.7208,N,00100.5136,W,1,8,1.05,-12.5,M,47.3,M,,*5F

$GPGSA,A,3,06,09,02,23,07,30,16,26,,,,,1.32,1.05,0.79*03

$GPGSV,3,1,11,09,82,078,37,06,60,225,36,02,44,293,30,23,41,064,25*7B

$GPGSV,3,2,11,07,35,159,35,33,30,198,,30,10,180,29,03,10,108,*7A

$GPGSV,3,3,11,16,08,063,22,26,08,035,26,29,04,346,22*43

$GPRMC,165845.000,A,5050.7208,N,00100.5136,W,0.10,308.26,041115,,,A*74

$GPGGA,165846.000,5050.7210,N,00100.5138,W,1,8,1.05,-12.4,M,47.3,M,,*5A

$GPGSA,A,3,06,09,02,23,07,30,16,26,,,,,1.32,1.05,0.79*03

$GPGSV,3,1,11,09,82,077,36,06,60,225,36,02,44,293,30,23,41,064,27*77

$GPGSV,3,2,11,07,35,159,35,33,30,198,,30,10,180,30,03,10,108,*72

$GPGSV,3,3,11,16,08,063,29,26,08,035,26,29,04,346,20*4A

$GPRMC,165846.000,A,5050.7210,N,00100.5138,W,0.06,308.26,041115,,,A*77

$GPGGA,165847.000,5050.7214,N,00100.5144,W,1,8,1.05,-12.3,M,47.3,M,,*53

$GPGSA,A,3,06,09,02,23,07,30,16,26,,,,,1.32,1.05,0.79*03

$GPGSV,3,1,11,09,82,077,35,06,60,225,37,02,44,293,30,23,41,064,28*7A

$GPGSV,3,2,11,07,35,159,34,33,30,198,,30,10,180,30,03,10,108,*73

$GPGSV,3,3,11,16,08,063,28,26,08,035,27,29,04,346,19*40

$GPRMC,165847.000,A,5050.7214,N,00100.5144,W,1.36,308.26,041115,,,A*7B

$GPGGA,165848.000,5050.7224,N,00100.5152,W,1,8,1.05,-12.4,M,47.3,M,,*5F

$GPGSA,A,3,06,09,02,23,07,30,16,26,,,,,1.32,1.05,0.79*03

$GPGSV,3,1,11,09,82,077,35,06,60,225,35,02,44,293,29,23,41,064,29*71

$GPGSV,3,2,11,07,35,159,34,33,30,198,,30,10,180,29,03,10,108,*7B

$GPGSV,3,3,11,16,08,063,28,26,08,035,27,29,04,346,19*40

$GPRMC,165848.000,A,5050.7224,N,00100.5152,W,2.18,308.26,041115,,,A*7F

$GPGGA,165849.000,5050.7231,N,00100.5161,W,1,9,1.05,-12.3,M,47.3,M,,*5C

$GPGSA,A,3,06,09,02,23,07,30,16,26,03,,,,1.32,1.05,0.79*00

$GPGSV,3,1,11,09,82,077,35,06,60,225,35,02,44,293,28,23,41,064,29*70

$GPGSV,3,2,11,07,35,159,33,33,30,198,,30,10,180,27,03,10,108,22*72

$GPGSV,3,3,11,16,08,063,28,26,08,035,25,29,04,346,19*42

$GPRMC,165849.000,A,5050.7231,N,00100.5161,W,2.69,317.47,041115,,,A*75

$GPGGA,165850.000,5050.7242,N,00100.5174,W,1,9,1.05,-12.2,M,47.3,M,,*55

$GPGSA,A,3,06,09,02,23,07,30,16,26,03,,,,1.32,1.05,0.79*00

$GPGSV,3,1,11,09,82,077,35,06,60,225,35,02,44,293,28,23,41,064,30*78

$GPGSV,3,2,11,07,35,159,33,33,30,198,,30,10,180,26,03,10,108,19*7B

$GPGSV,3,3,11,16,08,063,26,26,08,035,23,29,04,346,18*4B

$GPRMC,165850.000,A,5050.7242,N,00100.5174,W,5.16,316.34,041115,,,A*77

$GPGGA,165851.000,5050.7250,N,00100.5190,W,1,9,1.11,-11.9,M,47.3,M,,*50

$GPGSA,A,3,06,09,02,23,07,30,16,26,03,,,,1.72,1.11,1.31*0C

$GPGSV,3,1,11,09,82,077,34,06,60,225,34,02,44,293,28,23,41,064,30*78

$GPGSV,3,2,11,07,35,159,33,37,28,151,,30,10,180,26,03,10,108,17*7D

$GPGSV,3,3,11,16,08,063,25,26,08,035,24,29,04,346,18*4F

$GPRMC,165851.000,A,5050.7250,N,00100.5190,W,4.29,315.45,041115,,,A*77

$GPGGA,165852.000,5050.7257,N,00100.5205,W,1,9,1.11,-11.9,M,47.3,M,,*5B

$GPGSA,A,3,06,09,02,23,07,30,16,26,03,,,,1.72,1.11,1.31*0C

$GPGSV,3,1,11,09,82,077,34,06,60,225,33,02,44,293,28,23,41,064,30*7F

$GPGSV,3,2,11,07,35,159,32,37,28,151,,30,10,180,26,03,10,108,18*73

$GPGSV,3,3,11,16,08,063,25,26,08,035,24,29,04,346,18*4F

$GPRMC,165852.000,A,5050.7257,N,00100.5205,W,3.83,314.29,041115,,,A*70

$GPGGA,165853.000,5050.7264,N,00100.5223,W,1,9,1.05,-12.0,M,47.3,M,,*51

$GPGSA,A,3,06,09,02,23,07,30,16,26,03,,,,1.32,1.05,0.79*00

$GPGSV,3,1,11,09,82,077,34,06,60,225,32,02,44,293,29,23,41,064,30*7F

$GPGSV,3,2,11,07,35,159,31,37,28,151,,30,10,180,26,03,10,108,18*70

$GPGSV,3,3,11,16,08,062,24,26,08,035,17,29,04,346,27*43

$GPRMC,165853.000,A,5050.7264,N,00100.5223,W,3.87,313.01,041115,,,A*7C

$GPGGA,165854.000,5050.7270,N,00100.5238,W,1,9,1.11,-12.1,M,47.3,M,,*5D

$GPGSA,A,3,06,09,02,23,07,30,16,26,03,,,,1.72,1.11,1.31*0C

$GPGSV,3,1,11,09,82,077,34,06,60,225,33,02,44,293,30,23,41,064,22*75

$GPGSV,3,2,11,07,35,159,31,37,28,151,,30,10,180,25,03,10,108,18*73

$GPGSV,3,3,11,16,08,062,24,26,08,035,17,29,04,346,25*41

$GPRMC,165854.000,A,5050.7270,N,00100.5238,W,3.81,301.03,041115,,,A*73

$GPGGA,165855.000,5050.7276,N,00100.5255,W,1,9,1.05,-12.1,M,47.3,M,,*54

$GPGSA,A,3,06,09,02,23,07,30,16,26,03,,,,1.32,1.05,0.79*00

$GPGSV,3,1,11,09,82,077,34,06,60,225,34,02,44,293,31,23,41,064,20*71

$GPGSV,3,2,11,07,35,159,31,37,28,151,,30,10,180,25,03,10,108,18*73

$GPGSV,3,3,11,16,08,062,23,26,08,035,26,29,04,346,24*45

$GPRMC,165855.000,A,5050.7276,N,00100.5255,W,4.55,296.35,041115,,,A*7B

$GPGGA,165856.000,5050.7282,N,00100.5282,W,1,9,1.05,-12.3,M,47.3,M,,*54

$GPGSA,A,3,06,09,02,23,07,30,16,26,03,,,,1.32,1.05,0.79*00

$GPGSV,3,1,11,09,82,077,34,06,60,225,34,02,44,293,31,23,41,064,19*7B

$GPGSV,3,2,11,07,35,159,31,37,28,151,,30,10,180,24,03,10,108,18*72

$GPGSV,3,3,11,16,08,062,21,26,08,035,26,29,04,346,23*40

$GPRMC,165856.000,A,5050.7282,N,00100.5282,W,7.45,294.29,041115,,,A*74

$GPGGA,165857.000,5050.7296,N,00100.5320,W,1,8,1.22,-12.3,M,47.3,M,,*5D

$GPGSA,A,3,06,09,02,07,30,16,26,03,,,,,1.89,1.22,1.45*0A

$GPGSV,3,1,11,09,82,077,35,06,60,225,34,02,44,293,31,23,41,064,19*7A

$GPGSV,3,2,11,07,35,159,32,37,28,151,,30,10,180,24,03,10,108,18*71

$GPGSV,3,3,11,16,08,062,19,26,08,035,24,29,04,346,24*4E

$GPRMC,165857.000,A,5050.7296,N,00100.5320,W,10.94,304.64,041115,,,A*42

$GPGGA,165858.000,5050.7315,N,00100.5368,W,1,9,1.11,-12.7,M,47.3,M,,*51

$GPGSA,A,3,06,09,02,23,07,30,16,26,03,,,,1.72,1.11,1.31*0C

$GPGSV,3,1,11,09,82,077,36,06,60,225,34,02,44,293,32,23,41,064,21*71

$GPGSV,3,2,11,07,35,159,33,37,28,151,,30,10,180,25,03,10,108,18*71

$GPGSV,3,3,11,16,08,062,26,26,08,035,24,29,04,346,22*44

$GPRMC,165858.000,A,5050.7315,N,00100.5368,W,11.00,312.91,041115,,,A*4A

$GPGGA,165859.000,5050.7333,N,00100.5402,W,1,8,1.11,-12.1,M,47.3,M,,*58

$GPGSA,A,3,06,09,02,23,07,30,16,26,,,,,1.72,1.11,1.31*0F

$GPGSV,3,1,11,09,82,077,36,06,60,225,34,02,44,293,34,23,41,064,33*74

$GPGSV,3,2,11,07,35,159,33,37,28,151,,30,10,180,24,03,10,108,18*70

$GPGSV,3,3,11,16,08,062,27,26,08,035,23,29,04,346,20*40

$GPRMC,165859.000,A,5050.7333,N,00100.5402,W,11.23,317.70,041115,,,A*4F

$GPGGA,165900.000,5050.7360,N,00100.5435,W,1,9,0.96,-12.1,M,47.3,M,,*58

$GPGSA,A,3,06,09,02,23,07,30,16,26,03,,,,1.24,0.96,0.79*0C

$GPGSV,3,1,11,09,82,077,35,06,60,225,33,02,44,293,35,23,41,064,34*76

$GPGSV,3,2,11,07,35,159,19,37,28,151,,30,10,180,23,03,10,108,18*7F

$GPGSV,3,3,11,16,08,062,27,26,08,035,23,29,04,346,21*41

$GPRMC,165900.000,A,5050.7360,N,00100.5435,W,11.58,324.89,041115,,,A*4A

$GPGGA,165901.000,5050.7392,N,00100.5457,W,1,9,1.03,-11.8,M,47.3,M,,*57

$GPGSA,A,3,06,09,02,23,07,30,16,26,03,,,,1.66,1.03,1.30*0B

$GPGSV,3,1,11,09,82,077,36,06,60,225,34,02,44,293,28,23,41,064,18*70

$GPGSV,3,2,11,07,35,159,21,39,26,147,,30,10,180,22,03,10,108,20*79

$GPGSV,3,3,11,16,08,062,26,26,08,035,21,29,04,346,20*43

$GPRMC,165901.000,A,5050.7392,N,00100.5457,W,12.55,336.79,041115,,,A*40

$GPGGA,165902.000,5050.7428,N,00100.5480,W,1,9,0.96,-11.6,M,47.3,M,,*5B

$GPGSA,A,3,06,09,02,23,07,30,16,26,03,,,,1.24,0.96,0.79*0C

$GPGSV,3,1,11,09,82,077,35,06,60,225,33,02,44,293,27,23,41,064,18*7B

$GPGSV,3,2,11,07,35,159,23,39,26,147,,30,10,180,21,03,10,108,21*79

$GPGSV,3,3,11,16,08,062,16,26,08,035,20,29,04,346,20*41

$GPRMC,165902.000,A,5050.7428,N,00100.5480,W,14.20,338.05,041115,,,A*4E

$GPGGA,165903.000,5050.7472,N,00100.5504,W,1,9,1.03,-11.5,M,47.3,M,,*56

$GPGSA,A,3,06,09,02,23,07,30,16,26,03,,,,1.66,1.03,1.31*0A

$GPGSV,3,1,11,09,82,077,35,06,60,225,32,02,44,293,26,23,41,064,19*7A

$GPGSV,3,2,11,07,35,159,24,39,26,147,,30,10,180,22,03,10,108,22*7E

$GPGSV,3,3,11,16,08,062,17,26,08,035,21,29,04,346,21*40

$GPRMC,165903.000,A,5050.7472,N,00100.5504,W,17.16,340.30,041115,,,A*42

$GPGGA,165904.000,5050.7518,N,00100.5536,W,1,8,0.99,-11.6,M,47.3,M,,*5D

$GPGSA,A,3,06,09,02,07,30,16,26,03,,,,,1.29,0.99,0.82*0B

$GPGSV,3,1,11,09,82,077,36,06,60,225,32,02,44,293,26,23,41,064,19*79

$GPGSV,3,2,11,07,35,159,24,39,26,147,,30,10,180,22,03,10,108,21*7D

$GPGSV,3,3,11,16,08,062,17,26,08,035,22,29,04,346,21*43

$GPRMC,165904.000,A,5050.7518,N,00100.5536,W,18.23,337.68,041115,,,A*4D

$GPGGA,165905.000,5050.7565,N,00100.5576,W,1,9,1.03,-11.4,M,47.3,M,,*53

$GPGSA,A,3,06,09,02,23,07,30,16,26,03,,,,1.66,1.03,1.31*0A

$GPGSV,3,1,11,09,82,077,35,06,60,225,32,02,44,293,27,23,41,064,28*79

$GPGSV,3,2,11,07,35,159,24,39,26,147,,30,10,180,21,03,10,108,21*7E

$GPGSV,3,3,11,16,08,062,19,26,08,035,23,29,04,346,20*4D

$GPRMC,165905.000,A,5050.7565,N,00100.5576,W,19.88,325.82,041115,,,A*45

$GPGGA,165906.000,5050.7601,N,00100.5620,W,1,9,1.03,-10.8,M,47.3,M,,*5C

$GPGSA,A,3,06,09,02,23,07,30,16,26,03,,,,1.66,1.03,1.31*0A

$GPGSV,3,1,11,09,82,077,33,06,60,225,32,02,44,293,29,23,41,064,29*70

$GPGSV,3,2,11,07,35,159,34,39,26,147,,30,10,180,22,03,10,108,20*7D

$GPGSV,3,3,11,16,08,062,28,26,08,035,22,29,04,346,19*44

$GPRMC,165906.000,A,5050.7601,N,00100.5620,W,19.31,314.64,041115,,,A*4F

$GPGGA,165907.000,5050.7642,N,00100.5674,W,1,9,1.03,-11.4,M,47.3,M,,*56

$GPGSA,A,3,06,09,02,23,07,30,16,26,03,,,,1.66,1.03,1.31*0A

$GPGSV,3,1,11,09,82,077,34,06,60,225,33,02,44,293,30,23,41,064,30*76

$GPGSV,3,2,11,07,35,159,34,39,26,147,,30,11,180,23,03,10,108,19*77

$GPGSV,3,3,11,16,08,062,28,26,08,035,21,29,04,346,17*49

$GPRMC,165907.000,A,5050.7642,N,00100.5674,W,19.84,307.01,041115,,,A*47

$GPGGA,165908.000,5050.7668,N,00100.5769,W,1,9,1.03,-10.6,M,47.3,M,,*5F

$GPGSA,A,3,06,09,02,23,07,30,16,26,03,,,,1.67,1.03,1.31*0B

$GPGSV,3,1,11,09,82,077,35,06,60,225,34,02,44,293,30,23,41,064,30*70

$GPGSV,3,2,11,07,35,159,33,39,26,147,,30,11,180,23,03,10,108,18*71

$GPGSV,3,3,11,16,08,062,20,26,08,035,23,29,04,346,16*42

$GPRMC,165908.000,A,5050.7668,N,00100.5769,W,22.83,290.97,041115,,,A*42

$GPGGA,165909.000,5050.7684,N,00100.5871,W,1,9,0.96,-10.8,M,47.3,M,,*59

$GPGSA,A,3,06,09,02,23,07,30,16,26,03,,,,1.24,0.96,0.79*0C

$GPGSV,3,1,11,09,82,077,36,06,60,225,33,02,44,293,30,23,41,064,29*7C

$GPGSV,3,2,11,07,35,159,32,39,26,147,,30,11,180,21,03,10,108,18*72

$GPGSV,3,3,11,16,08,062,20,26,08,035,21,29,04,346,*47

$GPRMC,165909.000,A,5050.7684,N,00100.5871,W,24.64,279.95,041115,,,A*4D

$GPGGA,165910.000,5050.7685,N,00100.5989,W,1,7,1.19,-11.1,M,47.3,M,,*56

$GPGSA,A,3,06,09,02,23,07,16,03,,,,,,1.47,1.19,0.88*06

$GPGSV,3,1,11,09,82,077,35,06,60,225,32,02,44,293,32,23,41,064,27*72

$GPGSV,3,2,11,07,35,159,39,39,26,147,,30,11,180,,03,10,108,18*7A

$GPGSV,3,3,11,16,08,062,21,26,08,035,,29,04,346,*45

$GPRMC,165910.000,A,5050.7685,N,00100.5989,W,26.83,265.29,041115,,,A*43

$GPGGA,165911.000,5050.7673,N,00100.6112,W,1,7,1.19,-11.0,M,47.3,M,,*56

$GPGSA,A,3,06,09,02,23,07,16,03,,,,,,1.48,1.19,0.88*09

$GPGSV,3,1,11,09,82,077,34,06,60,225,32,02,44,293,32,23,41,064,20*74

$GPGSV,3,2,11,07,35,159,38,30,11,180,,03,10,108,18,16,08,062,14*79

$GPGSV,3,3,11,26,08,035,,40,06,109,,29,04,346,*47

$GPRMC,165911.000,A,5050.7673,N,00100.6112,W,29.65,260.05,041115,,,A*4E

$GPGGA,165912.000,5050.7656,N,00100.6246,W,1,7,1.19,-11.2,M,47.3,M,,*52

$GPGSA,A,3,06,09,02,23,07,16,03,,,,,,1.48,1.19,0.88*09

$GPGSV,3,1,11,09,82,077,27,06,60,225,32,02,44,293,32,23,41,064,20*76

$GPGSV,3,2,11,07,35,159,27,30,11,180,,03,10,108,18,16,08,062,14*77

$GPGSV,3,3,11,26,08,035,,40,06,109,,29,04,346,*47

$GPRMC,165912.000,A,5050.7656,N,00100.6246,W,31.03,256.82,041115,,,A*4B

$GPGGA,165913.000,5050.7629,N,00100.6387,W,1,7,1.19,-10.9,M,47.3,M,,*5D

$GPGSA,A,3,06,09,02,23,07,16,03,,,,,,1.47,1.19,0.88*06

$GPGSV,3,1,11,09,82,077,25,06,60,225,32,02,44,293,30,23,41,064,27*71

$GPGSV,3,2,11,07,35,159,28,30,11,180,,03,10,108,18,16,08,062,14*78

$GPGSV,3,3,11,26,08,035,17,40,06,109,,29,04,346,*41

$GPRMC,165913.000,A,5050.7629,N,00100.6387,W,33.37,253.25,041115,,,A*43

$GPGGA,165914.000,5050.7591,N,00100.6535,W,1,8,1.07,-10.5,M,47.3,M,,*59

$GPGSA,A,3,06,09,02,23,07,16,26,03,,,,,1.37,1.07,0.86*04

$GPGSV,3,1,11,09,82,077,25,06,60,225,31,02,44,293,31,23,41,064,34*71

$GPGSV,3,2,11,07,35,159,27,30,11,180,,03,10,108,17,16,08,062,21*7E

$GPGSV,3,3,11,26,08,035,23,40,06,109,,29,04,346,*46

$GPRMC,165914.000,A,5050.7591,N,00100.6535,W,35.66,249.61,041115,,,A*42

$GPGGA,165915.000,5050.7550,N,00100.6692,W,1,8,1.23,-10.7,M,47.3,M,,*5F

$GPGSA,A,3,06,09,02,23,07,16,26,03,,,,,2.09,1.23,1.69*0C

$GPGSV,3,1,11,09,82,077,26,06,60,225,32,02,44,293,33,23,41,064,34*73

$GPGSV,3,2,11,07,35,159,28,30,11,180,,03,10,108,16,16,08,062,20*71

$GPGSV,3,3,11,26,08,035,20,40,06,109,,29,04,346,*45

$GPRMC,165915.000,A,5050.7550,N,00100.6692,W,37.49,247.95,041115,,,A*4A

$GPGGA,165916.000,5050.7503,N,00100.6856,W,1,6,1.44,-10.6,M,47.3,M,,*52

$GPGSA,A,3,06,09,02,23,07,26,,,,,,,1.73,1.44,0.95*05

$GPGSV,3,1,11,09,82,077,25,06,59,225,33,02,44,293,35,23,41,064,34*7D

$GPGSV,3,2,11,07,35,159,27,30,11,180,,03,10,108,,16,08,062,19*73

$GPGSV,3,3,11,26,08,035,20,40,06,109,,29,04,346,*45

$GPRMC,165916.000,A,5050.7503,N,00100.6856,W,38.90,246.91,041115,,,A*47

$GPGGA,165917.000,5050.7454,N,00100.7021,W,1,6,1.44,-10.9,M,47.3,M,,*56

$GPGSA,A,3,06,09,02,23,07,26,,,,,,,1.73,1.44,0.95*05

$GPGSV,3,1,11,09,82,077,25,06,59,225,34,02,44,293,36,23,41,064,34*79

$GPGSV,3,2,11,07,36,159,25,30,11,180,,03,10,108,,16,08,062,18*73

$GPGSV,3,3,11,26,08,035,15,40,06,109,,29,04,346,*43

$GPRMC,165917.000,A,5050.7454,N,00100.7021,W,41.08,244.82,041115,,,A*43

$GPGGA,165918.000,5050.7399,N,00100.7188,W,1,7,1.19,-10.9,M,47.3,M,,*54

$GPGSA,A,3,06,09,02,23,07,16,26,,,,,,1.48,1.19,0.88*0E

$GPGSV,3,1,11,09,82,077,25,06,59,225,35,02,44,293,36,23,41,064,33*7F

$GPGSV,3,2,11,07,36,159,25,30,11,180,,03,10,108,,16,08,062,19*72

$GPGSV,3,3,11,26,08,035,15,40,06,109,,29,04,346,*43

$GPRMC,165918.000,A,5050.7399,N,00100.7188,W,43.14,243.62,041115,,,A*4E

$GPGGA,165919.000,5050.7343,N,00100.7358,W,1,7,1.29,-11.0,M,47.3,M,,*56

$GPGSA,A,3,06,09,02,23,07,16,26,,,,,,1.57,1.29,0.89*02

$GPGSV,3,1,11,09,81,076,25,06,59,225,34,02,44,293,25,23,41,064,31*7C

$GPGSV,3,2,11,07,36,159,24,30,11,180,,03,10,108,,16,08,062,20*79

$GPGSV,3,3,11,26,08,035,14,40,06,109,,29,04,346,*42

$GPRMC,165919.000,A,5050.7343,N,00100.7358,W,44.04,242.66,041115,,,A*44

$GPGGA,165920.000,5050.7284,N,00100.7524,W,1,7,1.29,-11.5,M,47.3,M,,*5E

$GPGSA,A,3,06,09,02,23,07,16,26,,,,,,1.57,1.29,0.89*02

$GPGSV,3,1,11,09,81,076,27,06,59,225,35,02,44,293,24,23,41,064,30*7F

$GPGSV,3,2,11,07,36,159,23,30,11,180,,03,10,108,,16,08,062,19*74

$GPGSV,3,3,11,26,08,035,14,40,06,109,,29,04,346,*42

$GPRMC,165920.000,A,5050.7284,N,00100.7524,W,44.41,239.56,041115,,,A*47

$GPGGA,165921.000,5050.7218,N,00100.7686,W,1,7,1.19,-11.6,M,47.3,M,,*51

$GPGSA,A,3,06,09,02,23,07,16,26,,,,,,1.48,1.19,0.88*0E

$GPGSV,3,1,11,09,81,076,28,06,59,225,36,02,44,293,24,23,41,064,29*7B

$GPGSV,3,2,11,07,36,159,30,30,11,180,,03,10,108,,16,08,062,18*77

$GPGSV,3,3,11,26,08,035,17,44,05,108,,29,04,346,*47

$GPRMC,165921.000,A,5050.7218,N,00100.7686,W,44.07,236.53,041115,,,A*40

$GPGGA,165922.000,5050.7148,N,00100.7843,W,1,7,1.29,-11.3,M,47.3,M,,*55

$GPGSA,A,3,06,09,02,23,07,16,26,,,,,,1.57,1.29,0.89*02

$GPGSV,3,1,11,09,81,076,27,06,59,225,36,02,44,293,23,23,41,064,19*70

$GPGSV,3,2,11,07,36,159,30,30,11,180,,03,10,108,,16,08,062,18*77

$GPGSV,3,3,11,26,08,035,17,44,05,108,,29,04,346,*47

$GPRMC,165922.000,A,5050.7148,N,00100.7843,W,43.56,233.84,041115,,,A*4E

$GPGGA,165923.000,5050.7075,N,00100.7996,W,1,7,1.29,-11.0,M,47.3,M,,*51

$GPGSA,A,3,06,09,02,23,07,16,26,,,,,,1.57,1.29,0.89*02

$GPGSV,3,1,11,09,81,076,26,06,59,225,36,02,44,293,21,23,41,064,19*73

$GPGSV,3,2,11,07,36,159,30,30,11,180,,03,10,108,,16,08,062,17*78

$GPGSV,3,3,11,26,08,035,16,44,05,108,,29,04,346,*46

$GPRMC,165923.000,A,5050.7075,N,00100.7996,W,43.54,233.27,041115,,,A*42

$GPGGA,165924.000,5050.7001,N,00100.8148,W,1,7,1.19,-10.6,M,47.3,M,,*55

$GPGSA,A,3,06,09,02,23,07,16,26,,,,,,1.48,1.19,0.88*0E

$GPGSV,3,1,11,09,81,076,26,06,59,225,35,02,44,293,23,23,41,064,19*72

$GPGSV,3,2,11,07,36,159,28,30,11,180,,03,10,108,,16,08,062,16*70

$GPGSV,3,3,11,26,08,035,16,44,05,108,,29,04,346,*46

$GPRMC,165924.000,A,5050.7001,N,00100.8148,W,43.24,231.89,041115,,,A*43

$GPGGA,165925.000,5050.6925,N,00100.8288,W,1,7,1.29,-10.3,M,47.3,M,,*53

$GPGSA,A,3,06,09,02,23,07,16,26,,,,,,1.57,1.29,0.89*02

$GPGSV,3,1,11,09,81,076,24,06,59,225,35,02,44,293,25,23,41,064,27*7B

$GPGSV,3,2,11,07,36,159,27,30,11,180,,03,10,108,,16,08,062,15*7C

$GPGSV,3,3,11,26,08,035,16,44,05,108,,29,04,346,*46

$GPRMC,165925.000,A,5050.6925,N,00100.8288,W,41.62,229.27,041115,,,A*4E

$GPGGA,165926.000,5050.6850,N,00100.8424,W,1,7,1.29,-9.9,M,47.3,M,,*61

$GPGSA,A,3,06,09,02,23,07,16,26,,,,,,1.57,1.29,0.89*02

$GPGSV,3,1,11,09,81,076,24,06,59,225,35,02,44,293,26,23,41,064,26*79

$GPGSV,3,2,11,07,36,159,27,30,11,180,,03,10,108,,16,08,062,15*7C

$GPGSV,3,3,11,26,08,035,16,44,05,108,,29,04,346,*46

$GPRMC,165926.000,A,5050.6850,N,00100.8424,W,40.18,230.18,041115,,,A*46

$GPGGA,165927.000,5050.6779,N,00100.8560,W,1,7,1.19,-9.4,M,47.3,M,,*6B

$GPGSA,A,3,06,09,02,23,07,16,26,,,,,,1.48,1.19,0.88*0E

$GPGSV,3,1,11,09,81,076,25,06,59,225,35,02,44,293,25,23,41,064,25*78

$GPGSV,3,2,11,07,36,159,28,30,11,180,,03,10,108,,16,08,062,15*73

$GPGSV,3,3,11,26,08,035,16,44,05,108,,29,04,346,*46

$GPRMC,165927.000,A,5050.6779,N,00100.8560,W,38.20,233.24,041115,,,A*4A

$GPGGA,165928.000,5050.6721,N,00100.8691,W,1,7,1.29,-9.2,M,47.3,M,,*61

$GPGSA,A,3,06,09,02,23,07,16,26,,,,,,1.57,1.29,0.89*02

$GPGSV,3,1,11,09,81,076,27,06,59,225,35,02,44,293,24,23,41,064,25*7B

$GPGSV,3,2,11,07,36,159,28,30,11,180,,03,10,108,,16,08,062,15*73

$GPGSV,3,3,11,26,08,035,16,44,05,108,,29,04,346,*46

$GPRMC,165928.000,A,5050.6721,N,00100.8691,W,36.36,235.93,041115,,,A*46

$GPGGA,165929.000,5050.6664,N,00100.8815,W,1,8,1.05,-8.9,M,47.3,M,,*69

$GPGSA,A,3,06,09,02,23,07,30,16,26,,,,,1.32,1.05,0.80*05

$GPGSV,3,1,11,09,81,076,28,06,59,225,34,02,44,293,25,23,41,064,26*77

$GPGSV,3,2,11,07,36,159,29,30,11,180,17,03,10,108,,16,08,062,15*74

$GPGSV,3,3,11,26,08,035,16,44,05,108,,29,04,346,*46

$GPRMC,165929.000,A,5050.6664,N,00100.8815,W,33.18,233.55,041115,,,A*40

$GPGGA,165930.000,5050.6618,N,00100.8920,W,1,7,1.12,-9.2,M,47.3,M,,*6E

$GPGSA,M,3,06,09,02,23,07,30,26,,,,,,1.38,1.12,0.81*03

$GPGSV,3,1,11,09,81,076,37,06,59,225,34,02,44,293,41,23,41,064,28*75

$GPGSV,3,2,11,07,36,159,29,30,11,180,16,03,10,108,,16,08,062,15*75

$GPGSV,3,3,11,26,08,035,16,29,04,346,,34,,,*7D

$GPRMC,165930.000,A,5050.6618,N,00100.8920,W,26.52,236.16,041115,,,A*4C

$GPGGA,165931.000,5050.6584,N,00100.9012,W,1,7,1.28,-8.7,M,47.3,M,,*6D

$GPGSA,M,3,06,09,02,23,07,30,26,,,,,,1.57,1.28,0.90*03

$GPGSV,3,1,11,09,81,076,37,06,59,225,34,02,44,293,41,23,41,064,29*74

$GPGSV,3,2,11,07,36,159,29,30,11,180,21,03,10,108,,16,08,062,15*71

$GPGSV,3,3,11,26,08,035,16,29,04,346,,34,,,*7D

$GPRMC,165931.000,A,5050.6584,N,00100.9012,W,20.97,238.69,041115,,,A*4B

$GPGGA,165932.000,5050.6566,N,00100.9079,W,1,8,1.05,-8.6,M,47.3,M,,*6E

$GPGSA,M,3,06,09,02,23,07,30,16,26,,,,,1.32,1.05,0.80*09

$GPGSV,3,1,11,09,81,076,35,06,59,225,34,02,44,293,33,23,41,064,29*73

$GPGSV,3,2,11,07,36,159,29,30,11,180,19,03,10,108,,16,08,062,15*7A

$GPGSV,3,3,11,26,08,035,16,29,04,346,,34,,,*7D

$GPRMC,165932.000,A,5050.6566,N,00100.9079,W,15.82,240.04,041115,,,A*4F

$GPGGA,165933.000,5050.6554,N,00100.9122,W,1,6,1.25,-9.2,M,47.3,M,,*68

$GPGSA,M,3,06,09,02,23,07,26,,,,,,,1.53,1.25,0.89*01

$GPGSV,3,1,11,09,81,076,23,06,59,225,36,02,44,293,34,23,41,064,31*78

$GPGSV,3,2,11,07,36,159,29,30,11,180,16,03,10,108,,16,08,062,15*75

$GPGSV,3,3,11,26,08,035,16,29,04,346,,34,,,*7D

$GPRMC,165933.000,A,5050.6554,N,00100.9122,W,9.82,242.68,041115,,,A*75

$GPGGA,165934.000,5050.6545,N,00100.9158,W,1,7,1.41,-9.5,M,47.3,M,,*66

$GPGSA,M,3,06,09,02,23,07,30,26,,,,,,2.53,1.41,2.10*01

$GPGSV,3,1,11,09,81,076,30,06,59,225,37,02,44,293,35,23,41,064,32*79

$GPGSV,3,2,11,07,36,159,29,30,11,180,17,03,10,108,,16,08,062,15*74

$GPGSV,3,3,11,26,08,035,16,29,04,346,,34,,,*7D

$GPRMC,165934.000,A,5050.6545,N,00100.9158,W,6.83,245.25,041115,,,A*7F

$GPGGA,165935.000,5050.6535,N,00100.9176,W,1,7,1.42,-9.7,M,47.3,M,,*6D

$GPGSA,M,3,06,09,02,23,07,30,26,,,,,,2.54,1.42,2.10*05

$GPGSV,3,1,11,09,81,076,29,06,59,225,37,02,44,293,35,23,41,064,33*70

$GPGSV,3,2,11,07,36,159,29,30,11,180,18,03,10,108,,16,08,062,15*7B

$GPGSV,3,3,11,26,08,035,16,29,04,346,,34,,,*7D

$GPRMC,165935.000,A,5050.6535,N,00100.9176,W,5.35,244.42,041115,,,A*7B

$GPGGA,165936.000,5050.6528,N,00100.9200,W,1,8,1.11,-9.7,M,47.3,M,,*69

$GPGSA,M,3,06,09,02,23,07,30,16,26,,,,,1.72,1.11,1.32*00

$GPGSV,3,1,11,09,81,076,28,06,59,225,36,02,44,293,35,23,41,064,33*70

$GPGSV,3,2,11,07,36,159,30,30,11,180,20,03,10,108,,16,08,062,15*78

$GPGSV,3,3,11,26,08,035,17,29,04,346,,35,,,*7D

$GPRMC,165936.000,A,5050.6528,N,00100.9200,W,4.57,241.19,041115,,,A*78

$GPGGA,165937.000,5050.6518,N,00100.9214,W,1,7,1.16,-9.5,M,47.3,M,,*64

$GPGSA,M,3,06,09,02,23,07,30,26,,,,,,1.80,1.16,1.37*08

$GPGSV,3,1,11,09,81,076,28,06,59,225,36,02,44,293,35,23,41,064,33*70

$GPGSV,3,2,11,07,36,159,30,30,11,180,21,03,10,108,,16,08,062,15*79

$GPGSV,3,3,11,26,08,035,17,29,04,346,,35,,,*7D

$GPRMC,165937.000,A,5050.6518,N,00100.9214,W,3.38,239.23,041115,,,A*77

$GPGGA,165938.000,5050.6512,N,00100.9222,W,1,9,1.05,-9.9,M,47.3,M,,*64

$GPGSA,M,3,06,09,02,23,07,30,16,26,03,,,,1.32,1.05,0.80*0A

$GPGSV,3,1,11,09,81,076,27,06,59,225,36,02,44,293,35,23,41,064,33*7F

$GPGSV,3,2,11,07,36,159,30,30,11,180,21,03,10,108,23,16,08,062,16*7B

$GPGSV,3,3,11,26,08,035,18,29,04,346,,35,,,*72

$GPRMC,165938.000,A,5050.6512,N,00100.9222,W,3.21,233.24,041115,,,A*72

$GPGGA,165939.000,5050.6509,N,00100.9233,W,1,9,1.05,-10.2,M,47.3,M,,*5C

$GPGSA,M,3,06,09,02,23,07,30,16,26,03,,,,1.32,1.05,0.80*0A

$GPGSV,3,1,11,09,81,076,26,06,59,225,36,02,44,293,35,23,41,064,33*7E

$GPGSV,3,2,11,07,36,159,28,30,11,180,22,03,10,108,22,16,08,062,17*71

$GPGSV,3,3,11,26,08,035,19,29,04,346,,35,,,*73

$GPRMC,165939.000,A,5050.6509,N,00100.9233,W,1.98,233.24,041115,,,A*79

$GPGGA,165940.000,5050.6512,N,00100.9232,W,1,8,1.19,-10.7,M,47.3,M,,*50

$GPGSA,M,3,06,09,02,23,07,16,26,03,,,,,1.48,1.19,0.88*01

$GPGSV,3,1,11,09,81,076,26,06,59,225,37,02,44,293,35,23,41,064,33*7F

$GPGSV,3,2,11,07,36,159,29,30,11,180,21,03,10,108,25,16,08,062,18*7B

$GPGSV,3,3,11,26,08,035,18,29,04,346,,35,,,*72

$GPRMC,165940.000,A,5050.6512,N,00100.9232,W,1.48,233.24,041115,,,A*71

$GPGGA,165941.000,5050.6511,N,00100.9236,W,1,9,1.05,-10.6,M,47.3,M,,*5B

$GPGSA,M,3,06,09,02,23,07,30,16,26,03,,,,1.32,1.05,0.80*0A

$GPGSV,3,1,11,09,81,076,26,06,59,225,37,02,44,293,35,23,41,064,33*7F

$GPGSV,3,2,11,07,36,159,22,30,11,180,22,03,10,108,23,16,08,062,18*75

$GPGSV,3,3,11,26,08,035,17,29,04,346,,35,,,*7D

$GPRMC,165941.000,A,5050.6511,N,00100.9236,W,0.02,233.24,041115,,,A*78

$GPGGA,165942.000,5050.6513,N,00100.9234,W,1,9,1.05,-10.5,M,47.3,M,,*5B

$GPGSA,M,3,06,09,02,23,07,30,16,26,03,,,,1.32,1.05,0.80*0A

$GPGSV,3,1,11,09,81,076,27,06,59,225,37,02,44,293,36,23,41,064,33*7D

$GPGSV,3,2,11,07,36,159,23,30,11,180,22,03,10,108,25,16,08,062,18*72

$GPGSV,3,3,11,26,08,035,17,29,04,346,,36,,,*7E

$GPRMC,165942.000,A,5050.6513,N,00100.9234,W,0.01,233.24,041115,,,A*78

$GPGGA,165943.000,5050.6515,N,00100.9235,W,1,9,1.05,-10.1,M,47.3,M,,*59

$GPGSA,M,3,06,09,02,23,07,30,16,26,03,,,,1.32,1.05,0.80*0A

$GPGSV,3,1,11,09,81,076,27,06,59,225,37,02,44,293,36,23,41,064,33*7D

$GPGSV,3,2,11,07,36,159,25,30,11,180,23,03,10,108,25,16,08,062,18*75

$GPGSV,3,3,11,26,08,035,17,29,04,346,,36,,,*7E

$GPRMC,165943.000,A,5050.6515,N,00100.9235,W,0.02,233.24,041115,,,A*7D

$GPGGA,165944.000,5050.6515,N,00100.9236,W,1,9,1.05,-10.1,M,47.3,M,,*5D

$GPGSA,M,3,06,09,02,23,07,30,16,26,03,,,,1.32,1.05,0.80*0A

$GPGSV,3,1,12,09,81,076,28,06,59,225,37,02,44,293,36,23,41,064,33*71

$GPGSV,3,2,12,07,36,159,26,05,13,290,,30,11,180,22,03,10,108,25*7A

$GPGSV,3,3,12,16,08,062,18,26,08,035,17,29,04,346,,36,,,28*45

$GPRMC,165944.000,A,5050.6515,N,00100.9236,W,0.03,233.24,041115,,,A*78

$GPGGA,165945.000,5050.6515,N,00100.9237,W,1,9,1.05,-10.1,M,47.3,M,,*5D

$GPGSA,M,3,06,09,02,23,07,30,16,26,03,,,,1.32,1.05,0.80*0A

$GPGSV,3,1,12,09,81,076,27,06,59,225,36,02,44,293,36,23,41,064,33*7F

$GPGSV,3,2,12,07,36,159,26,05,13,290,,30,11,180,22,03,10,108,24*7B

$GPGSV,3,3,12,16,08,062,18,26,08,035,17,29,04,346,,36,,,29*44

$GPRMC,165945.000,A,5050.6515,N,00100.9237,W,0.04,233.24,041115,,,A*7F

$GPGGA,165946.000,5050.6515,N,00100.9239,W,1,8,1.05,-10.1,M,47.3,M,,*51

$GPGSA,M,3,06,09,02,23,07,30,16,26,,,,,1.32,1.05,0.80*09

$GPGSV,3,1,12,09,81,076,27,06,59,225,35,02,45,293,36,23,41,064,32*7C

$GPGSV,3,2,12,07,36,159,28,05,13,290,,30,11,180,21,03,10,108,16*77

$GPGSV,3,3,12,16,08,062,18,26,08,035,18,29,04,346,,36,,,30*43

$GPRMC,165946.000,A,5050.6515,N,00100.9239,W,0.04,233.24,041115,,,A*72

$GPGGA,165947.000,5050.6514,N,00100.9240,W,1,8,1.05,-10.1,M,47.3,M,,*5F

$GPGSA,M,3,06,09,02,23,07,30,16,26,,,,,1.32,1.05,0.80*09

$GPGSV,3,1,12,09,81,076,27,06,59,225,35,02,45,293,36,23,41,064,32*7C

$GPGSV,3,2,12,07,36,159,29,05,13,290,,30,11,180,21,03,10,108,16*76

$GPGSV,3,3,12,16,08,062,18,26,08,035,18,29,04,346,,36,,,30*43

$GPRMC,165947.000,A,5050.6514,N,00100.9240,W,0.04,233.24,041115,,,A*7C

$GPGGA,165948.000,5050.6513,N,00100.9241,W,1,9,1.05,-10.1,M,47.3,M,,*57

$GPGSA,M,3,06,09,02,23,07,30,16,26,03,,,,1.32,1.05,0.80*0A

$GPGSV,3,1,12,09,81,076,27,06,59,225,35,02,45,293,36,23,41,064,32*7C

$GPGSV,3,2,12,07,36,159,30,05,13,290,,30,11,180,21,03,10,108,16*7E

$GPGSV,3,3,12,16,08,062,18,26,08,035,18,29,04,346,,36,,,27*45

$GPRMC,165948.000,A,5050.6513,N,00100.9241,W,0.89,233.24,041115,,,A*70

$GPGGA,165949.000,5050.6513,N,00100.9245,W,1,9,1.05,-10.1,M,47.3,M,,*52

$GPGSA,M,3,06,09,02,23,07,30,16,26,03,,,,1.32,1.05,0.80*0A

$GPGSV,3,1,12,09,81,076,26,06,59,225,34,02,45,293,35,23,41,064,32*7F

$GPGSV,3,2,12,07,36,159,31,05,13,290,,30,11,180,22,03,10,108,17*7D

$GPGSV,3,3,12,16,08,062,18,26,08,035,18,29,04,346,,36,,,27*45

$GPRMC,165949.000,A,5050.6513,N,00100.9245,W,1.33,233.24,041115,,,A*75

$GPGGA,165950.000,5050.6511,N,00100.9250,W,1,9,0.96,-10.1,M,47.3,M,,*57

$GPGSA,M,3,06,09,02,23,07,30,16,26,03,,,,1.24,0.96,0.79*00

$GPGSV,3,1,12,09,81,076,26,06,59,224,34,02,45,293,35,23,41,064,32*7E

$GPGSV,3,2,12,07,36,159,31,05,13,290,,30,11,180,20,03,10,108,17*7F

$GPGSV,3,3,12,16,08,062,18,26,08,035,18,29,04,346,,36,,,27*45

$GPRMC,165950.000,A,5050.6511,N,00100.9250,W,2.38,241.20,041115,,,A*72

$GPGGA,165951.000,5050.6508,N,00100.9259,W,1,7,1.25,-10.4,M,47.3,M,,*55

$GPGSA,M,3,06,09,02,23,07,26,03,,,,,,1.53,1.25,0.89*02

$GPGSV,3,1,12,09,81,076,26,06,59,224,35,02,45,293,35,23,41,064,32*7F

$GPGSV,3,2,12,07,36,159,30,05,13,290,,30,11,180,19,03,10,108,17*74

$GPGSV,3,3,12,16,08,062,17,26,08,035,17,29,04,346,,36,,,27*45

$GPRMC,165951.000,A,5050.6508,N,00100.9259,W,3.28,248.19,041115,,,A*71

$GPGGA,165952.000,5050.6501,N,00100.9272,W,1,7,1.25,-10.2,M,47.3,M,,*50

$GPGSA,M,3,06,09,02,23,07,26,03,,,,,,1.53,1.25,0.89*02

$GPGSV,3,1,12,09,81,076,26,06,59,224,36,02,45,293,35,23,41,064,32*7C

$GPGSV,3,2,12,07,36,159,31,05,13,290,,30,11,180,18,03,10,108,17*74

$GPGSV,3,3,12,16,08,062,17,26,08,035,17,29,04,346,,36,,,27*45

$GPRMC,165952.000,A,5050.6501,N,00100.9272,W,3.34,245.63,041115,,,A*7F

$GPGGA,165953.000,5050.6498,N,00100.9282,W,1,8,1.00,-10.5,M,47.3,M,,*50

$GPGSA,M,3,06,09,02,23,07,30,26,03,,,,,1.28,1.00,0.80*03

$GPGSV,3,1,12,09,81,075,27,06,59,224,36,02,45,293,35,23,41,064,32*7E

$GPGSV,3,2,12,07,36,159,31,05,13,290,,30,11,180,18,03,10,108,17*74

$GPGSV,3,3,12,16,08,062,17,26,08,035,17,29,04,346,,36,,,27*45

$GPRMC,165953.000,A,5050.6498,N,00100.9282,W,3.15,243.83,041115,,,A*7B

$GPGGA,165954.000,5050.6490,N,00100.9294,W,1,8,1.00,-10.7,M,47.3,M,,*5A

$GPGSA,M,3,06,09,02,23,07,30,26,03,,,,,1.28,1.00,0.80*03

$GPGSV,3,1,12,09,81,075,28,06,59,224,36,02,45,293,35,23,41,064,32*71

$GPGSV,3,2,12,07,36,159,32,05,13,290,,30,11,180,18,03,10,108,18*78

$GPGSV,3,3,12,16,08,062,17,26,08,035,17,29,04,346,,36,,,26*44

$GPRMC,165954.000,A,5050.6490,N,00100.9294,W,3.11,242.57,041115,,,A*7F

$GPGGA,165955.000,5050.6485,N,00100.9308,W,1,8,1.00,-11.0,M,47.3,M,,*5D

$GPGSA,M,3,06,09,02,23,07,30,26,03,,,,,1.28,1.00,0.80*03

$GPGSV,3,1,12,09,81,075,29,06,59,224,37,02,45,293,36,23,41,064,33*73

$GPGSV,3,2,12,07,36,159,32,05,13,290,,30,11,180,18,03,10,108,18*78

$GPGSV,3,3,12,16,08,062,17,26,08,035,18,29,04,346,,38,,,*41

$GPRMC,165955.000,A,5050.6485,N,00100.9308,W,3.30,241.90,041115,,,A*75

$GPGGA,165956.000,5050.6479,N,00100.9315,W,1,7,1.25,-11.4,M,47.3,M,,*5D

$GPGSA,M,3,06,09,02,23,07,26,03,,,,,,1.53,1.25,0.89*02

$GPGSV,3,1,12,09,81,075,29,06,59,224,37,02,45,293,36,23,41,064,33*73

$GPGSV,3,2,12,07,36,159,32,05,13,290,,30,11,180,18,03,10,108,18*78

$GPGSV,3,3,12,16,08,062,17,26,08,035,17,29,04,346,,38,,,*4E

$GPRMC,165956.000,A,5050.6479,N,00100.9315,W,3.34,242.52,041115,,,A*70

$GPGGA,165957.000,5050.6475,N,00100.9328,W,1,7,1.12,-11.5,M,47.3,M,,*5B

$GPGSA,M,3,06,09,02,23,07,30,26,,,,,,1.38,1.12,0.81*03

$GPGSV,3,1,12,09,81,075,28,06,59,224,37,02,45,293,37,23,41,064,33*73

$GPGSV,3,2,12,07,36,159,31,05,13,290,,30,11,180,18,03,10,108,17*74

$GPGSV,3,3,12,16,08,062,17,26,08,035,17,29,04,346,,38,,,*4E

$GPRMC,165957.000,A,5050.6475,N,00100.9328,W,3.29,242.21,041115,,,A*7B

$GPGGA,165958.000,5050.6472,N,00100.9342,W,1,7,1.12,-11.8,M,47.3,M,,*52

$GPGSA,M,3,06,09,02,23,07,30,26,,,,,,1.38,1.12,0.81*03

$GPGSV,3,1,12,09,81,075,26,06,59,224,37,02,45,293,37,23,41,064,33*7D

$GPGSV,3,2,12,07,36,159,31,05,13,290,,30,11,180,19,03,10,108,17*75

$GPGSV,3,3,12,16,08,062,17,26,08,035,17,29,04,346,,38,,,*4E

$GPRMC,165958.000,A,5050.6472,N,00100.9342,W,3.04,242.42,041115,,,A*75

$GPGGA,165959.000,5050.6469,N,00100.9357,W,1,7,1.12,-11.6,M,47.3,M,,*53

$GPGSA,M,3,06,09,02,23,07,30,26,,,,,,1.38,1.12,0.81*03

$GPGSV,3,1,12,09,81,075,26,06,59,224,37,02,45,293,37,23,41,064,33*7D

$GPGSV,3,2,12,07,36,159,30,05,13,290,,30,11,180,20,03,10,108,17*7E

$GPGSV,3,3,12,16,08,062,17,26,08,035,17,29,04,346,,38,,,*4E

$GPRMC,165959.000,A,5050.6469,N,00100.9357,W,2.87,242.92,041115,,,A*7D

$GPGGA,170000.000,5050.6467,N,00100.9367,W,1,8,0.99,-11.9,M,47.3,M,,*5D

$GPGSA,M,3,06,09,02,23,07,30,26,03,,,,,1.28,0.99,0.80*02

$GPGSV,3,1,12,09,81,075,27,06,59,224,37,02,45,293,37,23,41,064,33*7C

$GPGSV,3,2,12,07,36,159,29,05,13,290,,30,11,180,19,03,10,108,18*73

$GPGSV,3,3,12,16,08,062,17,26,08,035,16,29,04,346,,38,,,*4F

$GPRMC,170000.000,A,5050.6467,N,00100.9367,W,2.59,242.40,041115,,,A*7D

$GPGGA,170001.000,5050.6465,N,00100.9380,W,1,8,1.00,-11.1,M,47.3,M,,*5E

$GPGSA,M,3,06,09,02,23,07,30,26,03,,,,,1.28,1.00,0.80*03

$GPGSV,3,1,12,09,81,075,26,06,59,224,37,02,45,293,37,23,41,064,33*7D

$GPGSV,3,2,12,07,36,159,30,05,13,290,,30,11,180,21,03,10,108,18*70

$GPGSV,3,3,12,16,08,062,17,26,08,035,16,29,04,346,,41,,,*41

$GPRMC,170001.000,A,5050.6465,N,00100.9380,W,2.62,242.74,041115,,,A*78

$GPGGA,170002.000,5050.6464,N,00100.9391,W,1,9,0.96,-10.6,M,47.3,M,,*55

$GPGSA,M,3,06,09,02,23,07,30,16,26,03,,,,1.24,0.96,0.79*00

$GPGSV,3,1,12,09,81,075,26,06,59,224,37,02,45,293,36,23,41,064,33*7C

$GPGSV,3,2,12,07,36,159,30,05,13,290,,30,11,180,22,03,10,108,17*7C

$GPGSV,3,3,12,16,08,062,17,26,08,035,16,29,04,346,,41,,,*41

$GPRMC,170002.000,A,5050.6464,N,00100.9391,W,2.66,243.18,041115,,,A*75

$GPGGA,170003.000,5050.6462,N,00100.9403,W,1,8,1.05,-10.5,M,47.3,M,,*57

$GPGSA,M,3,06,09,02,23,07,30,16,26,,,,,1.32,1.05,0.80*09

$GPGSV,3,1,12,09,81,075,27,06,59,224,37,02,45,293,36,23,41,064,32*7C

$GPGSV,3,2,12,07,36,159,30,05,13,290,,30,11,180,23,03,10,108,16*7C

$GPGSV,3,3,12,16,08,062,18,26,08,035,16,29,04,346,,41,,,*4E

$GPRMC,170003.000,A,5050.6462,N,00100.9403,W,3.00,244.40,041115,,,A*75

$GPGGA,170004.000,5050.6458,N,00100.9415,W,1,9,0.96,-10.4,M,47.3,M,,*55

$GPGSA,M,3,06,09,02,23,07,30,16,26,03,,,,1.25,0.96,0.80*07

$GPGSV,3,1,12,09,81,075,27,06,59,224,37,02,45,293,36,23,41,064,32*7C

$GPGSV,3,2,12,07,36,159,31,05,13,290,,30,11,180,21,03,10,108,16*7F

$GPGSV,3,3,12,16,08,062,18,26,08,035,16,29,04,346,,41,,,*4E

$GPRMC,170004.000,A,5050.6458,N,00100.9415,W,3.22,243.92,041115,,,A*74

$GPGGA,170005.000,5050.6455,N,00100.9426,W,1,8,1.05,-10.6,M,47.3,M,,*51

$GPGSA,M,3,06,09,02,23,07,30,16,26,,,,,1.32,1.05,0.80*09

$GPGSV,3,1,12,09,81,075,28,06,59,224,37,02,45,293,36,23,41,064,32*73

$GPGSV,3,2,12,07,36,159,31,05,13,290,,30,11,180,21,03,10,108,16*7F

$GPGSV,3,3,12,16,08,062,18,26,08,035,16,29,04,346,,41,,,*4E

$GPRMC,170005.000,A,5050.6455,N,00100.9426,W,3.58,244.62,041115,,,A*7D

$GPGGA,170006.000,5050.6450,N,00100.9439,W,1,8,1.05,-10.8,M,47.3,M,,*57

$GPGSA,M,3,06,09,02,23,07,30,16,26,,,,,1.32,1.05,0.80*09

$GPGSV,3,1,12,09,81,075,28,06,59,224,37,02,45,293,36,23,41,064,32*73

$GPGSV,3,2,12,07,36,159,32,05,13,290,,30,11,180,21,03,10,108,16*7C

$GPGSV,3,3,12,16,08,062,18,26,08,035,15,29,04,346,,41,,,*4D

$GPRMC,170006.000,A,5050.6450,N,00100.9439,W,3.27,244.27,041115,,,A*7C
